address,latitude,longitude
am talfeld 4 | 3451 atzelsdorf,48.289052749999996,15.962221685748888
geierstrasse 1 | 22305 hamburg,53.5865196,10.0523502
traunsteiner strasse 5-7 | 83313 siegsdorf,47.82199815,12.641237499999999
gansauweg 125 | 34431 marsberg,51.44822485,8.836652618014266
beerfeldener strasse 19 | 69483 wald-michelbach,49.59845585,8.85822725
eichelbergstrasse 3 | 97503 gädheim,50.0241725,10.3468626
strannersdorf 5 | 3240 mank,48.1100084,15.327873931599095
heerweg 20 | 72070 tübingen,48.49981545,9.003185203034377
siemensstrasse 15 | 48619 heek,52.11326995,7.084132472857142
am altrhein 5 | 76767 hagenbach,49.0111975,8.2605829
fliegerstrasse 1 | 30179 hannover,52.41273755,9.736160036596958
zur leopoldfeste 11 | 76437 rastatt,48.8474668,8.206353462568675
frankfurter strasse 67 | 65830 kriftel,50.0867146,8.47320548072445
lonstorferplatz 8 | 4020 linz,48.294057800000004,14.314101186579563
paul-henri-spaak-strasse 17-19 | 51069 köln,50.9786059,7.0583692
österreicher strasse 17 | 01279 dresden,51.02769975,13.83546171033149
babenhäuser strasse 8 | 64859 eppertshausen,49.9449602,8.8499703
klopstockstrasse 4 | 22765 hamburg,53.54653685,9.934138149999999
schmiedekamp 6-10 | 25560 schenefeld,54.0551604,9.4794382
alte ziegelei 5 | 42653 solingen,51.19939875,7.07760612472036
nordholter weg 2 | 48317 drensteinfurt,51.76205575,7.796311955857348
an der ochsenwiese 6 | 55124 mainz,49.9978083,8.212645152980922
regensburger str. 17-21 | 92637 weiden,49.6522727,12.1414913
heiliggeiststrasse 10 | 6020 innsbruck,47.2614139,11.3973275
friedrich-list-strasse 9 | 74532 ilshofen,49.1533836,9.9407517
johannisstr. 92/93 | 49074 osnabrück,52.269819049999995,8.051255893426239
ladestrasse siegen-ost | 57074 siegen,50.870593,8.0569333
schedlerstrasse 1b | 6900 bregenz,47.4977752,9.7504165
gaustr. 20 | 55411 bingen,49.962888,7.8937155
libanonstrasse 85 | 70186 stuttgart,48.779105349999995,9.205000257245814
hubertusweg 18 | 5020 salzburg,47.8241954,13.0172894
rainerstrasse 15 | 4600 wels,48.16249545,14.020652454106997
8 rue des fusillés de la résistance | 92800 puteaux,48.8836563,2.2249801
wiedenbrücker strasse 33 | 33415 verl,51.8728712,8.4564328
amtsstrasse 47 | 22143 hamburg,53.60118344999999,10.161293660214962
galgenbergstrasse 8 | 73431 aalen,48.8385597,10.0989458
haferstücke 7 | 21279 appel,53.3912929,9.7432348
109 avenue de libourne | 33870 vayres,44.9002876,-0.3215109
berliner allee 12 | 30855 langenhagen,52.4335175,9.6829465
gewerbering 15 | 84549 engelsberg,48.107203,12.5679216
gamonstrasse 1 | 4910 ried im innkreis,48.21242905,13.467345894168467
eppendorfer landstrasse 112 | 20249 hamburg,53.5927087,9.9891037
hinterbärenbadstrasse 20a. | 81373 münchen,48.1207168,11.5278293
nebraer str. 105 | 06636 laucha,51.227316,11.6707896
winsbergring 3b | 22525 hamburg,53.5739321,9.916769536732131
ossietzkystrasse 8 | 70174 stuttgart,48.784888,9.1773232
arndtstrasse 30 | 39108 magdeburg,52.1245134,11.613002
philipp-zorn-strasse 28 | 91522 ansbach,49.2952714,10.580695916978101
schnackenburgallee 217-223 | 22525 hamburg,53.59590665,9.904554150592338
brauereistr. 2 | 39104 magdeburg,52.1045805,11.637583968078623
mozartstrasse 15 | 22083 hamburg,53.5777387,10.020569304615384
marktplatz 6 | 4501 neuhofen an der krems,48.13825075,14.229276024108358
rosenheimer strasse 123 | 81667 münchen,48.125967,11.598454
charlottenstrasse 18 | 10117 berlin,52.5084593,13.3923502
am steenöver 22 | 27777 ganderkesee,53.0772381,8.5936951
forstweg 3 | 66557 illingen,49.3939118,7.092293700000001
kinkelbach 43 | 41189 mönchengladbach,51.1161466,6.406962
gensinger strasse 44 | 55457 horrweiler,49.8972123,7.9571861
aschaffstrasse 26 | 63741 aschaffenburg,49.98991945,9.141073224396735
rotdornstrasse 16 | 41352 korschenbroich,51.166785149999995,6.583739626585528
sankt pöltnerstrasse 2/2 | 3203 rabenstein an der pielach,48.0530115,15.4548713
weidenweg 12 | 73087 bad boll,48.6446121,9.6192806
holzhofstrasse 19 | 82362 weilheim,47.8314033,11.1265647
zur schönhalde 10 | 89352 ellzee,48.3430237,10.3190725
hofäckerstrasse 10-14 | 88697 bermatingen,47.7274613,9.3191882
rudolf-diesel-strasse 19 | 66271 kleinblittersdorf,49.1194016,7.0530725
salzheck 7 | 56332 dieblich,50.316345,7.4817464
nunsdorfer ring 29 | 12277 berlin,52.4050207,13.3845891
warneckestrasse 7 | 1110 wien,48.164150750000005,16.481513993672493
in bolz 3 | 56253 treis-karden,50.177907,7.3094498
kurze strasse 8 | 30938 burgwedel,52.565368199999995,9.84406315
am haupttor | 06237 leuna,51.3259454,12.0125113
gutenbergstr. 4 | 28844 weyhe-dreye,53.0184992,8.87582055940449
am kellerholz 14 | 17166 teterow,53.7928147,12.563137977597789
werkstrasse 13 | 08064 zwickau,50.662096399999996,12.447070443211654
bei der linde 5 | 75446 wiernsheim,48.8879848,8.8510576
hauptstrasse 66 | 8292 neudau,47.1794083,16.0967973
dorfplatz 11 | 91346 wiesenttal,49.8111549,11.2184821
bergwerkstr. 22 | 6130 schwaz,47.3596544,11.7244726
knapper strasse 36 | 58507 lüdenscheid,51.21936345,7.624366281395352
glashüttenweg 40 | 23568 lübeck,53.8934496,10.7085459
dr.-karl-renner-gasse 5 | 8160 weiz,47.217457499999995,15.623700980011296
herrenwiese 1 | 57319 bad berleburg,51.0627639,8.399846638834093
im seifental 21 | 53498 bad breisig,50.53081495,7.273751990939168
borsigallee 31 | 60388 frankfurt,50.1391167,8.7455471
waldstrasse 18 | 64331 weiterstadt,49.889567,8.6110668081349
in den birken 16 | 66999 hinterweidenthal,49.190488900000005,7.752622807283149
schlotthamer strasse 3a | 84503 altötting,48.2237918,12.6774861
talstrasse 1 | 57334 bad laasphe,50.9150171,8.35279723076923
richard-lenk-str. 11-13 | 77876 kappelrodeck,48.5950437,8.1158513
haller strasse 207 | 74564 crailsheim,49.13959905,10.028752448355736
teckstrasse 12 | 73230 kirchheim,48.6478213,9.4553604
maxstrasse 8 | 13347 berlin,52.5492479,13.3652417
hauptstr. 31 | 63920 großheubach,49.7262353,9.2230059
am bahnhof 2 | 03185 peitz,51.86413,14.408473498101266
brühlstrasse 35 | 41849 wassenberg,51.0944876,6.157837793422209
im steu 7 | 31737 rinteln,52.1690553,9.116923
bahnstrasse 39 | 7210 mattersburg,47.7369871,16.4042672
badstraße 20 | 76829 landau,49.19718555,8.111296557012622
wilhelm-stein-weg 15 | 22339 hamburg,53.646106,10.032248458049818
bahnhofstrasse 31 | 71638 ludwigsburg,48.8914803,9.187150331099417
edelzeller strasse 6a | 36093 künzell,50.5176668,9.70957
römerstrasse 631 | 47443 moers,51.4601615,6.6527598
"st. georgener hauptstraße, 135 | 3151 sankt georgen",48.1344107,15.6129963
zimmerstrasse 11 | 10969 berlin,52.507448,13.3880238
sportallee 6 | 22335 hamburg,53.614757,10.00121113874376
hanns-martin-schleyer-strasse 37 | 47877 willich,51.2752005,6.5200175
15 rue du bois | 68570 osenbach,47.9881215,7.2137969
basaltweg 64 | 22395 hamburg,53.65671425,10.091755474603293
invalidenstrasse 91 | 10115 berlin,52.5285625,13.3767164
grenzweg 4 | 37431 bad lauterberg,51.6218205,10.4369636
fliederstrasse 17 | 47800 krefeld,51.3434818,6.6139679
hohenbergstrasse | 76829 landau,49.1930803,8.066236
alexander-fleming-str. 2 | 51643 gummersbach,51.01384325,7.565139101613727
höhenweg 72 | 35041 marburg,50.8107773,8.742722010218245
max-braun-strasse 1 | 97828 marktheidenfeld,49.8272149,9.5416915
reiherdamm 5 | 20457 hamburg,53.5280908,9.9792296
raiffeisenstrasse 5 | 54411 hermeskeil,49.662153,6.9501485
draßling 95 | 8422 st. nikolai,46.8072202,15.64814905071784
162 rue de la gare | 59470 esquelbecq,50.8896259,2.4110368
urbarialgasse 27 | 2425 nickelsdorf,47.940845350000004,17.07339354341972
burgweg 3 | 27432 alfstedt,53.5419806,9.0653776
energiepark 4 | 91732 merkendorf,49.1982698,10.6876452
augsfelder strasse 6 | 97437 haßfurt,50.0295211,10.524821951998748
bahnhofstrasse 60 | 4910 ried im innkreis,48.20361815,13.488431510925889
salzgrund 67 | 74076 heilbronn,49.166237699999996,9.213142215372457
678 rue maréchal foch | 76580 le trait,49.4724152,0.8150966
möderitzer weg 53-55 | 19370 parchim,53.4376439,11.8393929
swebenring 7 | 46286 dorsten,51.7212225,7.0382982
hilsingstrasse 89 | 59174 kamen,51.58710275,7.628449551331354
niedertor 13 | 36088 hünfeld,50.6769428,9.7636984
an der babe 6 | 04509 zwochau,51.46162515,12.250103978202684
feldbahnweg 22 | 5111 bürmoos,47.9904566,12.9196858
clemens-cassel-strasse 26 | 29223 celle,52.6296361,10.0931042
zeile 8 | 2170 poysdorf,48.6662415,16.589930095652186
salzburger strasse 3 | 4870 vöcklamarkt,47.99389265,13.489982693288972
quedlinburger strasse 15 | 10589 berlin,52.523092,13.3103864
hans-günther-sohl-strasse 5 | 40235 düsseldorf,51.2327491,6.8198972805542155
avenue gaston cabannes - b.p. 69 | 33270 floirac,44.8284,-0.5234235
oberdorfstrasse 57 | 75015 bretten,49.04916545,8.720410050000002
talstrasse 28 | 72218 wildberg,48.6248971,8.7478349
poststrasse 51 | 20354 hamburg,53.554146200000005,9.987931104084764
138 rue leon faucher | 51450 betheny,49.2720041,4.0420753
4 rue de la poste | 94210 st maur des fosses,48.7928131,2.5154946
solmser gewerbepark 21 | 35606 solms/burgsolms,50.5435305,8.413866693363673
austrasse 9 | 4552 wartberg an der krems,47.9852501,14.119836269239515
bobstrasse 2 | 50676 köln,50.93378455,6.947318728316908
motorstrasse 24 | 70499 stuttgart,48.8272989,9.1075783
fischergasse 33 | 7083 purbach,47.905077899999995,16.698261497414887
chemnitzer strasse 14 | 30952 ronnenberg,52.346290550000006,9.674225247766966
alt bornheim 34 | 60385 frankfurt,50.129861899999995,8.71108118892989
heinzelsleite 13 | 95326 kulmbach,50.10336409999999,11.407873212079362
hohe buchleuthe 3 | 87600 kaufbeuren,47.878073349999994,10.616194168897932
morsestrasse 7 | 50769 köln,51.0385024,6.922209697548927
karl-haußmann-strasse 18 | 71636 ludwigsburg,48.8886418,9.164473950350814
alte schmelze 4 | 65201 wiesbaden,50.047936199999995,8.203189096435946
23 rue jean giraudoux | 75116 paris,48.8694313,2.2966766
lindenstrasse 35a | 01968 senftenberg,51.5282431,13.9926865
hallerstrasse 3-6 | 10587 berlin,52.5223679,13.3237302
hauptstrasse 36 | 72461 albstadt,48.28214035,8.999272534590578
dorfstrasse 4 | 77756 hausach,48.2826831,8.155636851724216
dorfstrasse 1 | 92358 seubersdorf,49.1616727,11.6230698
zöbinger hauptstrasse 11 | 3561 zöbing,48.488272699999996,15.690225132483995
21 rue principale | 67140 mittelbergheim,48.3956748,7.4436093
friedhofweg 10 | 74921 helmstadt-bargen,49.326232149999996,8.970669539130432
wilhelmstrasse 9 | 73642 welzheim,48.875614850000005,9.634482604084914
staatsstrasse 23 | 67483 edesheim,49.26332145000001,8.134704500000021
am waller freihafen 1 | 28217 bremen,53.0961834,8.7707318
lindenplatz 6 | 72818 trochtelfingen,48.307908,9.2459884
wiener strasse 96 | 60599 frankfurt,50.0985443,8.734084097276941
gotzweg 3 | 41238 mönchengladbach,51.1534586,6.4512935
wilhelmstrasse 6 | 55283 nierstein,49.870657800000004,8.339735875227072
fritz-vomfelde-str. 12 | 40547 düsseldorf,51.2394403,6.734930999535145
klingelbergerstrasse 13 | 77770 durbach,48.490934949999996,8.003152966985292
lise-meitner-strasse 2 | 24941 flensburg,54.7637992,9.4469188
blumenstrasse 16 | 90762 fürth,49.4754925,10.986714112335335
hanauer landstrasse 291b | 60314 frankfurt,50.1170221,8.7257398
gartenstrasse 30 | 94036 passau,48.577045299999995,13.401744949999998
talstrasse 2 | 77887 sasbachwalden,48.6201933,8.1214076
enge strasse 1 | 21335 lüneburg,53.2470164,10.4065208
brückesgasse 15 | 55234 bechtolsheim,49.80525375,8.193574798281755
4 rue de la gare | 67580 mietesheim,48.8817829,7.6647159
am dämmig 10 | 37339 teistungen,51.4692911,10.276688143259454
vasoldsberg 59 | 8071 hausmannstätten,46.9938323,15.5183179
renetshamer weg 47 | 4910 ried im innkreis,48.2120431,13.465326811139825
hauptstrasse 11 | 34626 neukirchen,50.910774700000005,9.357811435903646
bizantweg 7 | 9800 spittal an der drau,46.787986000000004,13.517332550162717
chemnitzer strasse 9 | 49078 osnabrück,52.2441344,7.9796407
diebacher strasse 4 | 97762 hammelburg,50.127202499999996,9.84111245465575
sonnenbergstrasse 42 | 66484 schmitshausen,49.306043349999996,7.51721946368613
am lehmen 18 | 97346 iphofen,49.6837624,10.310210652340334
abendgrundweg 1 | 78089 unterkirnach,48.08097145,8.356858306193987
sommerseite 20 | 77889 seebach,48.5788539,8.1750715
mollandserstrasse 14 | 3562 schönberg,48.514511,15.692374837669686
,44.933143,7.540121
leipziger strasse 7 | 63526 erlensee,50.158881550000004,8.991821385456113
markwerbener strasse 30 | 06667 weißenfels,51.2117114,11.955204250000001
marburger strasse 71 | 8435 wagna,46.771922700000005,15.558699239174667
sankt-urban-strasse 22 | 3481 fels am wagram,48.439195749999996,15.814021358373346
köbbingser mühle 2 | 58640 iserlohn,51.42322485,7.705117575807543
roseggerstrasse 134 | 8670 krieglach,47.5524186,15.5736519
andreasberger strasse 10 | 38678 clausthal-zellerfeld,51.798529200000004,10.341671744753892
unter-markersdorf 11 | 2061 hadres,48.70930445,16.11276786658997
lenneper strasse 33 | 42289 wuppertal,51.2685658,7.233901511400646
großwiesendorf 22 | 3701 großweikersdorf,48.4477457,15.9863948
bahnstrasse 3 | 3483 feuersbrunn,48.4351336,15.777545000634419
kirchenstrasse 79 | 67069 ludwigshafen,49.519206350000005,8.39699494444112
pöchlarner strasse 34 | 3251 purgstall,48.0602987,15.133214728493638
alter markt 15 | 5211 friedburg,48.0189639,13.245513722335026
mairegasse 12 | 2700 wiener neustadt,47.83251625,16.259094057467056
hohenwarth 26 | 3472 hohenwarth,48.5063862,15.8275736
frauenbrunner strasse 25 | 75031 eppingen,49.13339405,8.899897899717551
talstrasse 32a | 40217 düsseldorf,51.2157959,6.778940056852971
klosterhagen 20 | 21029 hamburg,53.4962008,10.216691086987115
eifeler strasse 4 | 51702 bergneustadt,51.025966249999996,7.643663499999999
raabau 1 | 8330 feldbach,46.9548504,15.9176667
eckerkamp 36 | 22391 hamburg,53.634308250000004,10.072453053806907
welfenstr. 2 | 65189 wiesbaden,50.06748585,8.251338943547628
karl-marx-strasse 49 | 12043 berlin,52.4835581,13.4308639
ostpreußendamm 140 | 12207 berlin,52.4233859,13.314177823651685
bergstrasse 1a | 87437 kempten,47.7034947,10.3230412
pischeldorfer strasse 171 | 9020 klagenfurt,46.63778235,14.335550538102495
site de la paix | 57440 algrange,49.350630699999996,6.038082652860298
herrengasse 3 | 3491 straß im straßertale,48.4726772,15.733193252710311
edewechter landstrasse 80 | 26131 oldenburg,53.128331599999996,8.177768843602857
bahnhofstrasse 46 | 34414 warburg,51.493000249999994,9.1581023395472
wimhölzelstrasse 20 | 4020 linz,48.295016399999994,14.314665555214727
sonnenberger strasse 33 | 6820 frastanz,47.2166855,9.644355770506541
schiefbahner strasse 3 | 41748 viersen,51.2651214,6.4061909
pittlerstrasse 65 | 63225 langen,50.0023298,8.648901436213125
im gründchen 1 | 61389 schmitten,50.303049,8.458165800000002
steig 282 | 6951 lingenau,47.45179415,9.929119992791978
währinger strasse 68 | 1090 wien,48.2234113,16.3517589
hauptstrasse 108 | 8740 zeltweg,47.1907965,14.746001828904946
alois-gäßl-strasse 1 | 84347 pfarrkirchen,48.4301489,12.9426771
rennbahnstrasse 2 | 66822 lebach,49.408125299999995,6.894918631773179
landvogtweg 14 | 6830 rankweil,47.27683905000001,9.647601210593436
penzinger strasse 69 | 1140 wien,48.1895188,16.3028702
haunsbergstrasse 6 | 5165 berndorf bei salzburg,47.9963137,13.060549946357366
hauptstrasse 74 | 3484 grafenwörth,48.405165350000004,15.810760005882358
kleine zeile 8 | 2172 schrattenberg,48.726299850000004,16.72126850266854
altstadt 16 | 2460 bruck an der leitha,48.0223847,16.775374682535713
am hof 11 | 1010 wien,48.2116177,16.3684599
müller-zu-bruck-strasse 3 | 83052 bruckmühl,47.88198695,11.913703686151136
gernewitzer strasse 47 | 07646 stadtroda,50.868085199999996,11.695405372235031
hüttenstr. 14 | 01705 freital,51.00554605,13.648561597202658
hainanger 25 | 04626 schmölln,50.90222075,12.350785706223517
wittestrasse 30 | 13509 berlin,52.5802081,13.2936726
claus-bastian-strasse 7 | 86919 utting,48.012765,11.0922303
zugspitzstrasse 101 | 82467 garmisch-partenkirchen,47.4873123,11.0708187
hauptstr. | 84576 teising,48.2273224,12.6149273
am kreuzweg 8 | 36304 alsfeld,50.73684955,9.288370716246671
dambroicher weg 3-5 | 53757 sankt augustin,50.7519153,7.2244907
ammannstrasse 9 | 97450 arnstein,49.9502569,10.008355
önsbacher str. 40 | 77855 achern,48.5953548,8.0585914
hans-hertlein-strasse 6 | 91346 wiesenttal,49.81074285,11.222866521993165
mühlental 17 | 56330 kobern-gondorf,50.3122272,7.4542479
gürtelstrasse 36 | 10247 berlin,52.510503,13.4744977
unterlandstrasse 50 | 63911 klingenberg,49.7687214,9.1840362
zur ölmühle 1 | 37671 höxter,51.83765755,9.334995927974912
an der birkenpfuhlheide 2 | 15837 baruth/mark,52.065541,13.5120467
bahnhofstrasse 43 | 96257 redwitz,50.1705207,11.2107041
luisenweg 109 | 20537 hamburg,53.5494811,10.0471857
elsenstrasse 109 | 12435 berlin,52.4901146,13.4558556
am exerzierplatz 1a | 68167 mannheim,49.503275900000006,8.49427464906002
vazaninistrasse 11 | 85567 grafing,48.0466738,11.9649258
sägerstrasse 100 | 6890 lustenau,47.4186375,9.672136059042554
robert-bosch-strasse 29a | 88131 lindau,47.5503222,9.7272804
wilthener strasse 32 | 02625 bautzen,51.1686092,14.421770683123569
richard-sorge-strasse 79 | 10249 berlin,52.5187805,13.448255
lindenstr. 68 | 57627 hachenburg,50.6555223,7.8019457773682195
graf-heinrich-str. 27 | 57627 hachenburg,50.6687025,7.8073353
herbert-kühn-strasse 10 | 55481 kirchberg,49.949931,7.4113422
leopoldstrasse 10 | 92224 amberg,49.4334969,11.8812503
blümchensaal 1b | 21337 lüneburg,53.2442308,10.4213007
am fuchsloch 19 | 04720 mochau,51.1131833,13.17882925000001
inselsbergstrasse 18 | 99891 schwarzhausen,50.89849965,10.47427675
aumatalweg 3 | 07570 weida,50.7712336,12.047184951207601
delitzscher strasse 72c | 06112 halle,51.4788068,11.9999761
butterberg 3 | 21279 drestedt,53.3326842,9.7527614
lange strasse 60 | 72336 balingen,48.256776200000004,8.84856285
eichenstrasse 19 | 82396 fischen,47.92480205,11.159206039474828
wesermünder strasse 9 | 40221 düsseldorf,51.2155137,6.735704364320399
romaneystrasse 11 | 51063 köln,50.9683214,7.0233280960862
werner-von-siemens-strasse 14 | 32369 rahden,52.438507200000004,8.640106144756832
gewerbegebiet 5 | 25946 nebel,54.6363843,8.3576184
grüne strasse 32 | 32289 rödinghausen,52.2402495,8.509002622700647
vogelsanger strasse 451 | 50829 köln,50.95549065,6.881927352332784
am zehnthof 187 | 45307 essen,51.459081999999995,7.070881549860996
am sudenburger bahnhof 3 | 39110 magdeburg,52.1206516,11.5968849
heimgarten 4/b03 | 3002 purkersdorf,48.1936679,16.1673061
karl-ferdinand-braun-str. 7 | 97080 würzburg,49.809657,9.890094606978424
am buckhornwald 7b | 22359 hamburg,53.66137705,10.151413200110179
koblenzer str. 58 | 56626 andernach,50.43618415,7.41718215
pohlhof 9 | 32839 steinheim,51.8651062,9.0953395
firschaumstrasse 8 | 5222 munderfing,48.07101595,13.183302183420366
bahnhofstrasse 35 | 5760 saalfelden am steinernen meer,47.4266302,12.8390372
hainfelder strasse 34 | 2563 pottenstein,47.961591600000006,16.092793778863246
rennweg 77 | 2345 brunn am gebirge,48.1078579,16.301137949210656
marktplatz 36 | 4724 neukirchen,48.40477595,13.781828598378386
poststrasse 4 | 3204 kirchberg an der pielach,48.0252399,15.43053546332773
zwieseler strasse 2 | 94269 rinchnach,48.9508646,13.1990296
hauptstrasse 33 | 2482 münchendorf,48.0299864,16.379417
weiße-hahnen-gasse 2 | 93047 regensburg,49.0207864,12.0975468
kremser strasse 7 | 3610 weißenkirchen,48.3990599,15.47208620880379
willersdorf 15 | 5143 feldkirchen bei mattighofen,48.04283875,13.012055172346761
reindlstrasse 4 | 4040 linz,48.312849299999996,14.28237209989569
hannesgrub 20 | 4910 ried im innkreis,48.21689895,13.499906650000002
sumpfgasse 13 | 1210 wien,48.2783486,16.371476005927107
bitzerweg 28 | 56598 rheinbrohl,50.49817805,7.327655860259999
kranichstrasse 40 | 25462 rellingen,53.6283995,9.8784655
wilhelmstrasse 7 | 35075 gladenbach,50.77029105,8.584989400000001
kapellenstrasse 2 | 30890 barsinghausen,52.3041372,9.531523197604743
hauptstrasse 4 | 99869 ebenheim,50.9754719,10.5118851
lindenstrasse 22 | 06917 jessen,51.7842042,12.9577598
margaretenstrasse 59 | 82152 krailling,48.095999649999996,11.411050696082093
heigern 4-8 | 97286 winterhausen,49.7062744,10.0135259
johannagasse 28 | 1050 wien,48.1851496,16.3474096
wellerstädter weg 9 | 91083 baiersdorf,49.6593162,11.0324823799195
tradigist 36 | 3203 rabenstein an der pielach,48.03508135,15.500046336430369
heinrich-taubenreuther-strasse 60 | 95361 ködnitz,50.117291550000004,11.509694148779793
brahmsweg 7 | 73453 abtsgmünd,48.88944685,9.99471925
simon prem-strasse 6 | 6300 wörgl,47.48648825,12.0704694
hinterhörn 2a | 23758 oldenburg,54.2918256,10.8887923
rosenheimer str. 21a | 83135 schechen,47.9289083,12.1277786
reindorfer osterberg 75 | 21266 jesteburg,53.3098391,9.9239679
bernd-rosemeyer-strasse 7 | 30880 laatzen,52.2919392,9.8208156
otto-lilienthal-strasse 2 | 49134 wallenhorst,52.3540336,8.001351792213418
gummiwerkstrasse 2 | 06886 lutherstadt wittenberg,51.873692,12.575775908134522
dr.-renner-strasse 1 | 4210 gallneukirchen,48.3544137,14.421826314097746
friedhofgasse 2 | 7141 podersdorf am see,47.8537473,16.8395939
siegsdorfer strasse 9a | 81825 münchen,48.1239592,11.6522416
ramsaustrasse 103 | 5324 faistenau,47.77431395,13.257580813732355
60 chemin de porte broc | 07100 annonay,45.24205,4.6895102
schelztorstrasse 54-56 | 73728 esslingen,48.7417329,9.3014024
rainweg 42 | 85123 karlskron,48.67972785,11.437178127361246
berner strasse 28 | 60437 frankfurt,50.1929091,8.661314146865926
große bleichen 16 | 20354 hamburg,53.5534707,9.9902302
siebenhügelstrasse 75 | 9020 klagenfurt,46.61170535,14.28223752666094
schloßstrasse 16 | 93491 stamsried,49.2695349,12.53149587550434
nennersdorfer strasse 27 | 8700 leoben,47.3775269,15.1077977
nickepütz 32 | 52349 düren,50.80718455,6.457280568520973
dresdner strasse 11 | 94315 straubing,48.88256925,12.615409467198237
seilerweg 45 | 3500 krems,48.4262216,15.588885397011751
gewerbehof 26 | 73441 bopfingen,48.8479374,10.375378387247306
wiener strasse 4 | 2352 gumpoldskirchen,48.0453025,16.2771063
stuben 25 | 6762 stuben,46.9685475,10.5300014
mühlgasse 12 | 83278 traunstein,47.857809950000004,12.633885365833335
hauptstrasse 39 | 82327 tutzing,47.9105064,11.2804089
kirchengasse 36 | 3451 rust,48.30081145,15.925402553030136
salzburgerstrasse 4 | 5600 st. johann,47.3544311,13.206589492768408
dr. hans-bachmann-strasse 54 | 6250 kundl,47.474414,11.9807116
zusestrasse 1 | 64347 griesheim,49.87028125,8.545014288235318
davisstrasse 13 | 5400 hallein,47.67972035,13.100443148453486
farnweg 7 | 26135 oldenburg,53.10307005,8.242705906865258
gutenbergstrasse 80-86 | 24118 kiel,54.3332139,10.1141907
sportplatzstrasse 5 | 77836 rheinmünster,48.74786855,8.045351994707207
sandgrube 1 | 3500 krems an der donau,48.4194109,15.6187659
frühlingstrasse 31 | 85055 ingolstadt,48.7663347,11.4377136
herzog-eugen-strasse 34 | 72250 freudenstadt,48.4693949,8.4103453
hans-böckler-str. 3 | 63128 dietzenbach,50.0176587,8.7940902
mittelpunktstrasse 65 | 32120 hiddenhausen,52.1491053,8.637976721571993
im haslet 38 | 93086 wörth,48.9989037,12.390450764670204
rachheide 16-18 | 33739 bielefeld,52.1011743,8.5665796
textorstrasse 16 | 60594 frankfurt,50.1025537,8.6888705
fiedlerstrasse 4 | 01307 dresden,51.05305185,13.7723208
konrad-zuse-strasse 16 | 47445 moers,51.4717362,6.639019
merheimer platz 16 | 50733 köln,50.95796395,6.950913510759035
za la cornadelle | 24300 augignac,45.5906461,0.7071466
junkersstrasse 12 | 06847 dessau-roßlau,51.82850235,12.2217624
bahnhofstrasse 9a | 82166 gräfelfing,48.1171571,11.4323082
platz der jugend 19 | 04509 krostitz,51.4976923,12.4319484
lindenstrasse 40 | 25548 kellinghusen,53.95277285,9.72017440361024
celler strasse 44 | 30161 hannover,52.38335885,9.741000184808506
gartenkamp 211 | 49492 westerkappeln,52.314039949999994,7.8996895766720945
hoher kamp 7 | 31552 apelern,52.287718049999995,9.285807053461173
lindenstrasse 4 | 82387 antdorf,47.7513725,11.3076973
sternweg 20 | 8401 zettling,46.970103,15.4370763
alte strasse 3 | 79249 merzhausen,47.9727113,7.8293649
industriestrasse 4-6 | 89347 bubesheim,48.4310859,10.260417322392637
porschestrasse 20 | 51381 leverkusen,51.05646855,7.021515631385878
benzstrasse 6 | 89250 senden,48.331230399999995,10.055355675270865
raiffeisenstrasse 8c | 46244 bottrop,51.6104067,6.934457211643504
venloer str.67 | 47623 kevelaer,51.5815266,6.2417293
volkhausenstrasse 6a | 32105 bad salzuflen,52.089548,8.741064978544218
auf der wies 21 | 87727 babenhausen,48.142021,10.2492582
heinrich-vogl-strasse 21 | 81479 münchen,48.0782692,11.5287806
klosterfelder hauptstrasse 24 | 16348 wandlitz,52.79454575,13.480017667035131
am stegskreuz 8 | 65719 hofheim,50.09398385,8.45362132100987
kurfürstendamm 96 | 10709 berlin,52.4987072,13.2987243
prof. gustav moißl-strasse 8 | 2000 stockerau,48.39245515,16.20002265368897
ingolstädter landstrasse 89a | 85748 garching,48.2603108,11.5976472
harschenflether weg 15 | 21682 stade,53.6049799,9.4789506
auf der birke 9 | 56412 heiligenroth,50.454684,7.8562187
am pfarrholz 19 | 95176 konradsreuth,50.2756586,11.851110949999999
tempelhofer weg 12 | 12347 berlin,52.4582281,13.4230619
subbelrather strasse 13 | 50672 köln,50.948066850000004,6.932725906285391
horstweg 24 | 31840 hessisch oldendorf,52.174013599999995,9.257074222968747
diesseits 1 | 4973 st. martin,48.295296199999996,13.437921628940583
marie-curie-strasse 8 | 64823 groß-umstadt,49.8727888,8.916776051737035
ringstr. 1b | 55425 waldalgesheim,49.9510127,7.8406035
junkersring 14 | 76344 eggenstein-leopoldshafen,49.07533465,8.374950851067425
langbaurghstr. 6 | 53842 troisdorf,50.8221035,7.111083908865364
zum tanklager 19 | 18146 rostock,54.1495404,12.139108996497662
taffingsweg 28 | 66740 saarlouis,49.2982771,6.734958147072735
binderweg 18 | 83022 rosenheim,47.857645149999996,12.130217956815748
allendestrasse 68 | 98574 schmalkalden,50.7245541,10.4727792
am amtsgraben 3 | 31867 lauenau,52.2735324,9.3658297
château de maniban | 32240 mauléon-d'armagnac,43.8981989,-0.15034690000000064
8 rue d artagnan | 32440 castelnau d auzan,43.9471924,0.0854917
hümmlinger weg 17 | 49757 werlte,52.86274525,7.692421605927109
hölderlinstrasse 30 | 78727 oberndorf,48.29720555,8.577473418310813
alte landstrasse 3 | 6719 bludesch,47.19956415,9.74425599953501
schulstrasse 14 | 97236 randersacker,49.7611438,9.9858943
dresdener strasse 14 | 04643 geithain,51.05251655,12.699806045262804
wiener strasse 27 | 8630 mariazell,47.77532665,15.315963799999995
landauer str. 75 | 67434 neustadt,49.34815425,8.150494630681814
hauptstrasse 145 | 53518 adenau,50.3817929,6.9390098
hauptstrasse 69 | 48346 ostbevern,52.037591500000005,7.847911022007043
streichhoffeld 2 | 73457 essingen,48.82271495,10.025470083124478
adolph-kolping-strasse 7 | 79312 emmendingen,48.11016885,7.857511993622621
gänsäckerweg 3 | 72186 empfingen,48.39191395,8.714524036586548
bonifatiusstrasse 15 | 83671 benediktbeuern,47.7009369,11.41236036983346
am borsigturm 27 | 13507 berlin,52.5831049,13.2841456
amperstrasse 9a | 85414 kirchdorf an der amper,48.457258,11.6554687
windschläger strasse 28 | 77652 offenburg,48.51576825,7.95936284280029
denzlinger strasse 4 | 79279 vörstetten,48.06543745,7.849820911482253
jockweg 62 | 31312 lübbecke,52.317755700000006,8.625768
wiehenstrasse 21 | 32289 rödinghausen,52.2590481,8.496956516550522
sadowastrasse 5 | 10318 berlin,52.477848550000004,13.513210689075006
173 boulevard de saint loup | 13011 marseille,43.2857118,5.4421663
rudolf-diesel-strasse 5 | 46446 emmerich,51.8397383,6.274252309968066
wendelsteinstrasse 56 | 83075 bad feilnbach,47.7631306,12.0146024
bugstrasse 7 | 79336 herbolzheim,48.221581900000004,7.767006144800437
blumrodaer weg 4 | 04552 borna,51.0809307,12.5086954
"les jamots, | 40190 arthez d'armagnac",43.8887656,-0.2387969
lagerplatzweg 5-7 | 67059 ludwigshafen,49.4844889,8.4288057
dieselstrasse 3 | 76327 pfinztal,49.007137400000005,8.523133024491056
düsseldorfer strasse 379-387 | 42327 wuppertal,51.2515762,7.0599078
2 rue leon blum | 62330 isbergues,50.6136705,2.4711969
ziegeleiweg 15 | 04435 schkeuditz,51.38937165,12.23744485
ginsheimer-straße 1 | 65462 ginsheim-gustavsburg,49.993039249999995,8.319685548383173
dr.-karl-renner-strasse 2 | 3200 ober-grafendorf,48.14871155,15.544851939624861
hickerstrasse 10 | 94522 wallersdorf,48.7384533,12.7143388
im walsumer esch 18 | 49577 ankum,52.5439868,7.889098
gassergasse 19 stg. 2/5 | 1050 wien,48.1841547,16.3657145
gewerbestr. 11 | 79674 todtnau,47.831909499999995,7.968640608333331
munstermannskamp 1 | 21335 lüneburg,53.23123845,10.404544003652887
merkenicher hauptstrasse 169 | 50769 köln,51.02707385,6.957131382649209
rappersdorf 6 | 4492 hofkirchen,48.1526729,14.388545903160374
lochhamer schlag 10a | 82166 gräfelfing,48.121375799999996,11.450411978211584
witternstrasse 20 | 21107 hamburg,53.522359,9.9809135
zum kraftwerk 7 | 45711 datteln,51.6274756,7.3304871
herrenpfad-süd 4 | 41334 nettetal,51.3259614,6.2073966
irrseeblick 47 | 4893 zell moos,47.8993851,13.3178511
zum krümpel 0 | 31608 marklohe,52.6429893,9.1461146
am consrader berg 8 | 19086 plate,53.5760343,11.46786538556998
daimlerstrasse 18 | 72124 pliezhausen,48.56752885,9.199731449999998
berliner strasse 6 | 14797 kloster lehnin,52.3605859,12.7552798
brunnenstr. 15/23 | 45128 essen,51.4447514,7.014159
alter flughafen 14a | 30179 hannover,52.4162185,9.7470019
langstrasse 26 | 65589 hadamar,50.4723373,8.1030751
bundesstrasse 12 | 5071 wals,47.78974025,12.983561205547616
helgoländer damm 75 | 26954 nordenham,53.501602649999995,8.50181476548967
holtenauer strasse 320 | 24106 kiel,54.3547033,10.1312626
robert-bosch-strasse 5 | 40789 monheim,51.1137352,6.9003128
wingertstrasse 25 | 65558 cramberg,50.3398714,7.942535
am lunedeich 66 | 27572 bremerhaven,53.5170051,8.5833157
13 rue francois arago | 17200 royan,45.6332529,-0.9987042
an der riedbahn 2 | 64560 riedstadt,49.8344523,8.4869718
am mühlbach 12 | 87487 wiggensbach,47.74747615,10.24474513220672
austrasse 103 | 74076 heilbronn,49.1665302,9.218931707969272
güterbahnhofstrasse 1 | 04319 leipzig,51.345076649999996,12.465563150000001
christian-jorhan-strasse | 85465 langenpreising,48.429729,11.9761405
daimlerstrasse 1 | 48599 gronau,52.2059712,7.059683784248015
66 rue de la republique | 25300 pontarlier,46.9043375,6.3533881
39 rue de courcelles | 39600 arbois,46.905567,5.770072
schelpmilser weg 14c | 33609 bielefeld,52.03942655,8.607973024639143
standorf 130 | 4223 katsdorf,48.29601585,14.487420864504475
am fleigendahl 4 | 59320 ennigerloh,51.8499933,8.033275332542814
im tal 70b | 91347 aufseß,49.883527650000005,11.228252281526277
sprinzenberger strasse 2 | 84339 unterdietfurt,48.3832712,12.6666571
rosmarinstrasse 21l | 40235 düsseldorf,51.2277695,6.8229643
waldweg 18 | 63849 leidersbach,49.8971723,9.2313236
otternbuchtstrasse 11 | 13599 berlin,52.5319673,13.246544598726416
rheinfelder strasse 29 | 79639 grenzach-wyhlen,47.5487743,7.694290762693284
kropskamp 1 | 38685 langelsheim,51.9294142,10.3402677
neustadt 8 | 37589 kalefeld,51.7982357,10.0360663
am berg 7/2 | 72535 heroldstatt,48.442674,9.6606301
ohechaussee 100 | 22848 norderstedt,53.6753805,9.9877703
molkenstrasse 12 | 32351 stemwede,52.4362926,8.4662436
lise-meitner-str. 5 | 24145 kiel,54.28022655,10.15046862253253
industriestr. 27-29 | 23843 bad oldesloe,53.8019441,10.39467334890286
berliner strasse 90 | 58135 hagen,51.3489175,7.4300748
johannesstrasse 19 | 27570 bremerhaven,53.5317215,8.59506704075033
bahnhofplatz 20-22 | 85072 eichstätt,48.8921062,11.1804515
gewerbegebiet echternhagen 13 | 32689 kalletal,52.115888,8.934059537589928
unterer markt 12 | 8551 wies,46.7199685,15.27235747046401
kattenvenner str. 28 | 49219 glandorf,52.102870249999995,7.956568467944104
hohenzollernstrasse 72 | 33330 gütersloh,51.91318015,8.37225910662277
9 rue faramand | 39600 arbois,46.9015035,5.7722021
in der gschwänd 34 | 83707 bad wiessee,47.7010708,11.7234249
paul-heidelbauer-strasse 26 | 74321 bietigheim-bissingen,48.9648783,9.128079339769599
industriestrasse 13 | 91126 rednitzhembach,49.2924598,11.0850233
björnsongasse 37 | 1130 wien,48.163491199999996,16.290836758040818
schwarzenbach 73 | 5360 st. wolfgang im salzkammergut,47.727691899999996,13.48981674950704
maria-theresia-strasse 17 | 4600 wels,48.1560591,14.019419047588798
franz-ulrich-strasse 18f | 34117 kassel,51.318604,9.4849406
weizerstrasse 54 | 8191 koglhof,47.330359200000004,15.693372199999995
wielandstrasse 13 | 71394 kernen,48.7929934,9.3376294
ludwigsluster chaussee 14-15 | 19370 parchim,53.4255559,11.813894
besenberg 9 | 4722 peuerbach,48.3550262,13.768821748358523
hamburger ring 15 | 01665 klipphausen,51.06414995,13.509854601422608
stahlstrasse 12 | 65428 rüsselsheim,49.97624705,8.434064256979337
junkerreute 6 | 78224 singen,47.794571700000006,8.84190245981155
rudolf-diesel-strasse 101 | 46485 wesel,51.6635253,6.6703003
harhausen 2 | 51688 wipperfürth,51.1253319,7.4149061
neunkirchener strasse 51 | 91207 lauf,49.5171523,11.29569195200957
hauptstrasse 58 | 51465 bergisch gladbach,50.98712055,7.121761338746541
eiweilerstrasse 12 | 66793 saarwellingen,49.361635199999995,6.893326650000001
am wäldchen 38b | 13591 berlin,52.522158149999996,13.129649470407042
dorfstrasse 17 | 01609 wülknitz,51.3730307,13.402858017454466
bahnhofstrasse 1 | 57584 scheuerfeld,50.7923158,7.8373516
hauptstrasse 79 | 57572 harbach,50.8635801,7.8388758
am eisweiher 33 | 91325 adelsdorf,49.7069772,10.8884247
heideläuferweg 85 | 12353 berlin,52.4162221,13.440648
lettenstrasse 16 | 72119 ammerbuch,48.566841350000004,8.906395027599556
ohmstrasse 9 | 85221 dachau,48.2668107,11.4761401
lofererstrasse 19 | 6322 kirchbichl,47.49489115,12.089318578360318
bismarckturmstrasse 18 | 64678 lindenfels,49.699192,8.7904493
buchenschlag 38a | 90469 nürnberg,49.4148035,11.0778561
laubental 8 | 94348 atting,48.885006149999995,12.50002955
finnlandsiedlung 12 | 98708 gehren,50.6478527,11.0158053
schwabentorring 10 | 79098 freiburg,47.9914845,7.854198911777808
wolfgarten 19 | 53937 schleiden,50.5904253,6.4931869
linzerstrasse 41 | 3385 prinzersdorf,48.1995625,15.5055499
arthur-scheunert-allee 2 | 14558 nuthetal,52.35873935,13.101448950253776
hauptstrasse 88a | 09235 burkhardtsdorf,50.728742249999996,12.874082500000004
dammühlenweg 28 | 39340 haldensleben,52.26783055,11.426200996001322
milsper str. 142 | 58256 ennepetal,51.30136615,7.367351852777073
eschengrunder strasse 1 | 17034 neubrandenburg,53.588315,13.2739799
zum wetterbrunnen 1-3 | 54457 wincheringen,49.5973096,6.4509882
am exerzierplatz 25 | 68167 mannheim,49.505303749999996,8.497906291477708
10 bd du general leclerc | 93260 les lilas,48.880572,2.4229745
bahnhofstr. 82 | 31311 uetze,52.4170181,10.178962949999999
industriestrasse 7 | 49191 belm,52.3031227,8.117716119353286
gewerbegebiet hanacker | 66636 tholey,49.50787845,7.004190043558898
jellinghausstrasse 12 | 32139 spenge,52.1458206,8.443775491612904
oberer markt 4 | 3134 nußdorf,48.353140350000004,15.694142022942549
peseckendorfer weg 2 | 39387 oschersleben,52.031169,11.2495429
osterather strasse 7 | 50739 köln,50.958206700000005,6.938453040604022
spannhagenstrasse 28 | 30655 hannover,52.4033133,9.7820484
küvenkamp 19 | 46509 xanten,51.6534403,6.431374929860448
soonwaldstrasse 49 | 55569 monzingen,49.8102945,7.5843685
am klint 6 | 24803 erfde,54.2926654,9.2928799
girardigasse 4 | 8010 graz,47.0682972,15.4443949
schulstrasse 1 | 25335 elmshorn,53.7554624,9.657097
asternweg 11 | 44869 bochum,51.443593699999994,7.162092130561058
am turm 86 | 53721 siegburg,50.79115445,7.225388802876591
am deich 43 | 28199 bremen,53.0769547,8.7941981
coustellet | 84660 maubec,43.8675951,5.1447245
nordlichtstrasse 16/18 | 13405 berlin,52.5638631,13.3237084
rosenstrasse 17 | 74579 fichtenau,49.0509396,10.227204
rechbergstrasse 35 | 73550 waldstetten,48.76300505,9.813545756045752
sigiltrastrasse 1 | 49751 sögel,52.859032,7.5161839
rodensleber weg 56 | 39110 magdeburg,52.12146465,11.570689973048534
pfarrer-huber-ring 12 | 83620 feldkirchen-westerham,47.9107629,11.8440168
hauptstrasse 23a | 6706 bürs,47.151574,9.807166971432903
lübbecker strasse 204 | 32429 minden,52.2730418,8.864680674832876
kirchenweg 7 | 86874 tussenhausen,48.0880087,10.546726
kirchstrasse 6 | 86486 bonstetten,48.4404592,10.7049678
gewerbepark 31-33 | 08258 markneukirchen,50.319098600000004,12.341285047006473
halberstädter strasse 32 | 39112 magdeburg,52.1161065,11.6131608
herrnstrasse 20 | 92224 amberg,49.4466815,11.8579538
kirchstrasse 20 | 99718 großenehrich,51.2506643,10.8337644
liether feldstrasse 20 | 25336 elmshorn,53.7304383,9.662318461213669
hindenburgstr. 49 | 22297 hamburg,53.60574305,10.011494326287275
winkeler strasse 82 | 65366 geisenheim,49.986153200000004,7.97123540791001
max-weigelt-strasse 85 | 09221 neukirchen,50.77921295,12.845230799999998
breuershofstrasse 81 | 47807 krefeld,51.2976805,6.566329382236622
rathausplatz 7 | 66346 püttlingen,49.28810835,6.882267719385601
hauptstrasse 159-163 a | 53557 bad hönningen,50.519127,7.3030061
pfingstreiterstr. 44 | 93444 bad kötzting,49.1688634,12.871184066666668
hermann-aust-strasse 2 | 86825 bad wörishofen,48.0025189,10.5858084
heubachstrasse 6 | 79219 staufen,47.887402050000006,7.727709161265013
an der raumfabrik 31 | 76227 karlsruhe,48.9977972,8.4641408
1 chemin du château | 21190 chassagne montrachet,46.9366403,4.73479
bismarckallee 15 | 79098 freiburg,47.998765,7.843018314201207
großmannstrasse 70 | 20539 hamburg,53.5404898,10.0487406
daimlerstrasse 16 | 41516 grevenbroich,51.12651115,6.599120334553727
an den speichern 4 | 48157 münster,51.995939449999995,7.63505187472936
ringstrasse 18 | 89558 treffelhausen,48.6905642,9.897687590420068
ergenzinger strasse 13 | 72108 rottenburg,48.5046456,8.7780655
schoßbergstrasse 11 | 65201 wiesbaden,50.04570645,8.207689498084612
rudolfstrasse 19 | 42551 velbert,51.3450734,7.0485256
residenzstr. 32 | 13409 berlin,52.5675329,13.3619985
alte bottroper strasse 54 | 45356 essen,51.488333,6.9586671
feldkirchener strasse 35 | 85540 haar,48.128657700000005,11.739269258212902
tannenkoppelweg 2 | 16928 pritzwalk,53.2064644,12.2326645
am graben 2-4 | 42477 radevormwald,51.2204462,7.3146462
hallplatz 2 | 90402 nürnberg,49.4493788,11.0785533
lautenberg 1 | 89073 ulm,48.3977557,9.9895866
schopenhauerweg 2 | 67346 speyer,49.3120443,8.418107800000005
apfelstrasse 1 | 32120 hiddenhausen,52.154252549999995,8.670966067335247
ramhorstweg 56 | 32278 kirchlengern,52.2226731,8.648357348704742
2 avenue de la redoute | 92390 villeneuve-la-garenne,48.9444451,2.3188163
brückes 41 | 55545 bad kreuznach,49.85297705,7.864267560851746
leineweberstr. 33 | 31191 algermissen,52.272092,10.01235469787363
gewerbegebiet am betonwerk 6 | 18356 barth,54.3719393,12.698888625327394
22 rue bersot | 25000 besançon,47.2376477,6.0281443
ruwoldtweg 4 | 22309 hamburg,53.6095027,10.051358164394863
bahnstrasse 22 | 41564 kaarst,51.1968227,6.607325548311152
gaube | 40190 perquié,43.8574844,-0.2295021
ottilienweg 5 | 63856 bessenbach,49.9528261,9.2494519
seehau 1 | 71665 vaihingen,48.97252985,8.939383157819766
bechtheim west 18 | 67595 bechtheim,49.72185845,8.260395882446826
waldbröler strasse 81 | 51597 morsbach,50.8727763,7.725790297529941
im kornkoog 2a | 25899 niebüll,54.7775568,8.8336111
wasserburgstrasse 44 | 58809 neuenrade,51.2929474,7.8255014
sonnenhalde 11 | 89129 langenau,48.4856023,10.062663449999999
bahnhofstrasse 138 | 74405 gaildorf,49.003403399999996,9.755180255771641
gewerbepark grüner weg 30 | 59269 beckum,51.7677575,8.035662051154997
industriestrasse 17 | 76275 ettlingen,48.910343100000006,8.36486324131737
mühle 14 | 96257 redwitz,50.19892325,11.211191515091262
scharfensteiner strasse 54 | 09432 großolbersdorf,50.700246500000006,13.088207161543238
krabbenkamp 11a | 47138 duisburg,51.45317985,6.776298198353155
motorstrasse 56 | 80809 münchen,48.187725549999996,11.56072574969858
neubauzeile 102 | 4030 linz,48.2445076,14.2812141
dorfstrasse 8a | 17375 leopoldshagen,53.7767679,13.886361
reinhard-schmidt-strasse 1 | 09217 burgstädt,50.896405599999994,12.820983402041858
soltauer strasse 8-10 | 27374 visselhövede,52.9939495,9.5936232
fröbersgrüner str. 20 | 08548 syrau,50.549890500000004,12.094685055349181
meierhofen 3 | 3362 mauer-öhling,48.0949558,14.8008883
reichsstrasse 95 | 58840 plettenberg,51.23695425,7.879628296342034
thomas-mann-strasse 7 | 02625 bautzen,51.179770700000006,14.439752765236499
hauptstr. 357 | 98530 suhl,50.5995976,10.5708597
breitenloher weg 12 | 91166 georgensgmünd,49.1710766,11.0101083
hohenzollernstrasse 42 | 72474 winterlingen,48.167557099999996,9.136487500000001
im fliegerhorst 2 | 74564 crailsheim,49.1335749,10.0489063
bolongarostrasse 134 | 65929 frankfurt,50.10018225,8.5495601461555
kirchenplatz 27 | 4643 pettenbach,47.9614784,14.0172491
am schloßberg 9 | 84555 jettenbach,48.16976255,12.380344686970453
alte akademie 2 | 85354 freising,48.3949582,11.729185
poccistr. 9 | 80336 münchen,48.1257971,11.5481979
am meierhof 11 | 94142 fürsteneck,48.7194991,13.4605707
eddelaker strasse 90 | 25693 st. michaelisdonn,53.9686899,9.124728393836254
wittelsbacherring 38 | 95444 bayreuth,49.9367364,11.5760725
zeppelinstrasse 58 | 97074 würzburg,49.7839683,9.952766295055621
goethestrasse 10 | 02708 großschweidnitz,51.0552539,14.63923592765363
brunostrasse 31 | 45889 gelsenkirchen,51.53011945,7.124817025065445
hubertusweg 6 | 57250 netphen,50.91578715,8.089769683360664
ortsstrasse 18 | 2331 vösendorf,48.1247267,16.3221605
zehntstrasse 37 | 68723 plankstadt,49.395550150000005,8.602157650000002
brienner strasse 48 | 80333 münchen,48.14748845,11.560877527438668
unterschweinstiege 2-14 | 60549 frankfurt,50.05840785,8.587011958911624
landstrasser hauptstrasse 81 | 1030 wien,48.2001601,16.3935341
gottlieb-daimler-strasse 21-23 | 68165 mannheim,49.4765123,8.4922048
am ismerhof 2 | 40668 meerbusch,51.3039132,6.67829955
grüttstrasse 8a | 6890 lustenau,47.4397048,9.6560694
schwabstrasse 18 | 70197 stuttgart,48.7698337,9.1587631
werner-von-siemens-strasse 6 | 25770 hemmingstedt,54.1598521,9.0844595
bahnhofstrasse 7 | 85354 freising,48.397361,11.7442586
st.-nikolaus-strasse 25 | 95445 bayreuth,49.938509,11.5519487
39 route de forstheim | 67500 haguenau,48.8246309,7.7873929
ermsstrasse 1 | 72581 dettingen,48.5255585,9.350045344808127
dalbergstrasse 7 | 55129 mainz,49.91168865,8.246768211581436
rangstrasse 39 | 36043 fulda,50.5418843,9.6796647
beeckstr. 70-72 | 46149 oberhausen,51.5067031,6.8211674
unter buschweg 22 | 50999 köln,50.86644375,7.001738231772322
olewiger strasse 206 | 54295 trier,49.7421608,6.6676288
leverkusenstrasse 31 | 22761 hamburg,53.566373999999996,9.931696970820735
heroldstr. 21 | 48163 münster,51.92352735,7.5751560337596615
auf der hude 70 | 21339 lüneburg,53.2593653,10.414191893599106
rheinstr. 82 | 49090 osnabrück,52.28999195,8.031379099999995
auf dem scheunenbrink 8 | 27211 bassum,52.85103735,8.733094387155571
nymphenburger strasse 184 | 80634 münchen,48.1554962,11.5327891
an der wasserwiese 3b | 52249 eschweiler,50.8155846,6.2866604
lindauer strasse 47 | 86199 augsburg,48.3304483,10.86702342872293
hohenhorst 60 | 48341 altenberge,52.0278275,7.4909538
herner strasse 42 | 45699 herten,51.581660299999996,7.153183422456178
im erlet 1 | 90518 altdorf,49.4057487,11.3479347
sodinger strasse 565 | 44628 herne,51.5586163,7.258486800000004
lippborger str. 221 | 59269 beckum,51.7384577,8.054612533686639
gewerbestrasse 21 | 16540 hohen neuendorf,52.660767750000005,13.29433224699864
herzbergstrasse 122-124 | 10365 berlin,52.5265104,13.4932643
salzburger strasse 4 | 56479 oberroßbach,50.6554704,8.0423584
dr.adolf schärf-strasse 5 | 3107 st. pölten,48.2237428,15.6363862
watzmannstrasse 16 | 83417 kirchanschöring,47.9503733,12.8417152
im gleisdreieck 32 | 23566 lübeck,53.86556365,10.743630150000001
am bahnhof 8 | 27383 scheeßel,53.1667088,9.497444
maschweg 8 | 32312 lübbecke,52.325352699999996,8.610361779999868
bahnhofstrasse 70 | 78652 deißlingen,48.1116326,8.614214166764018
rathausstrasse 36 | 04416 markkleeberg,51.27926525,12.368868813211083
burgfriedenstrasse 17 | 60489 frankfurt,50.12393065,8.610257874360169
gerasdorfer strasse 55 | 1210 wien,48.2884602,16.420639461570776
16 chemin de la camave | 31290 villefranche de lauragais,43.4035686,1.7026787
carl-benz-strasse 35 | 60386 frankfurt,50.1190002,8.757299549999995
weiherweg 4 | 64331 weiterstadt,49.912178850000004,8.569191917564739
klingenhofstrasse 51 | 90411 nürnberg,49.4765207,11.1116195
lerchenweg 36 | 89174 altheim,48.5768083,10.0235817
stifterstrasse 7 | 4600 wels,48.17153065,14.028474948527002
berliner strasse 137 | 63067 offenbach,50.10675345,8.757507172994769
breite strasse 13 | 14199 berlin,52.4744399,13.2941465
maierhof 1 | 94496 ortenburg,48.5724052,13.2107587
wolfratshauser strasse 150 | 82049 pullach,48.042014,11.50486515
deller strasse 49 | 42781 haan,51.191799450000005,6.989372625414315
grafenegger strasse 13 | 3492 etsdorf am kamp,48.44230095,15.743204713717798
gasanstaltstrasse 43 | 01237 dresden,51.0233974,13.7914517
invalidenstrasse 4 | 10115 berlin,52.5328148,13.396611
uhlandstrasse 173/174 | 10719 berlin,52.5013362,13.3253379
mitteldorfer weg 10 | 53819 neunkirchen-seelscheid,50.8677311,7.3659092
karlsbader strasse 15a | 63110 rodgau,50.0207756,8.8761694
schloss strasse 66 | 3550 langenlois,48.4600461,15.689029
talstrasse 136 | 3491 straß im straßertale,48.4898954,15.728932341298435
waldstrasse 31 | 17268 templin,53.1181086,13.5106242
geschwister-scholl-strasse 8a | 04205 leipzig,51.3218316,12.256178495191364
stuttgarter strasse 61 | 72280 dornstetten,48.47332565,8.4781615
böttcherstrasse 11 | 04519 rackwitz,51.478769150000005,12.362345399999999
hans-riegel-strasse 4 | 53129 bonn,50.7093453,7.1110436
poppenbütteler chaussee 9 | 22397 hamburg,53.7076804,10.104785120625447
mittelstrasse 49 | 63303 dreieich,50.02331425,8.691633857991691
derenbach 4 | 53809 ruppichteroth,50.8116658,7.416189658663334
weinstraße nord 33 | 67487 maikammer,49.30621455,8.131665730318412
werner-von-siemens-strasse 30 | 48268 greven,52.138702,7.5580197
strauchgasse 2 | 4482 ennsdorf,48.21514425,14.493819810012864
venusberger strasse 31 | 3133 traismauer,48.3468464,15.7416567
schwarzen 808 | 6861 alberschwende,47.44916585,9.831156199999999
bröckerweg 66 | 49082 osnabrück,52.2487986,8.0535013
rautenham 7a | 83413 fridolfing,47.9868434,12.7940248
jägerbergweg 2 | 4400 steyr,48.03177975,14.419259037928011
paul-lincke-ufer 33 | 10999 berlin,52.4953381,13.424845
bahnstrasse 19 | 2243 matzen,48.399184649999995,16.696964658599022
lornsenstrasse 14-18 | 25821 bredstedt,54.6220902,8.9706559
silcherstrasse 14 | 74229 oedheim,49.2428456,9.247157049005754
neufang 36 | 3483 feuersbrunn,48.4425145,15.78908502879634
an den mühlen 34a | 2103 langenzersdorf,48.3110377,16.3459075144403
am sandtorkai 5 | 20457 hamburg,53.5437274,9.9951285
fötschach 118 | 8463 leutschach,46.66978520000001,15.494080455492298
glatzental 30 | 8342 gnas,46.881108850000004,15.786812344646659
neustadt 12 | 6800 feldkirch,47.2369036,9.5984081
warener strasse 5 / h.5 | 12683 berlin,52.518848,13.5641369
urfelder strasse 65 | 50389 wesseling,50.802115400000005,6.998102106704513
industriestrasse 9 | 53359 rheinbach,50.63515955,6.955517560719159
walgaustrasse 7 | 6713 ludesch,47.1969374,9.7783846
lerchenstrasse 51 | 85635 höhenkirchen-siegertsbrunn,48.0161099,11.7174533
poppenbütteler bogen 84 | 22399 hamburg,53.66883970000001,10.071512132501272
kimplerstrasse 326 | 47807 krefeld,51.3032548,6.5640955
aspangstrasse 39 | 1030 wien,48.19185915,16.393167621930747
jubiläumsstrasse 3 | 2620 neunkirchen,47.75138835,16.09081530677257
auestrasse 26 | 63128 dietzenbach,50.01283065,8.776221505522152
blumenstetter strasse 34 | 72393 burladingen,48.293455800000004,9.099274542498753
nedderhufer schlag 1 | 18233 neubukow,54.0369026,11.6854762
weiler weg 7 | 71144 steinenbronn,48.657170750000006,9.118256549999995
fritz-frey-strasse 18 | 69121 heidelberg,49.43771715,8.67882275
weinstrasse 2a | 79282 ballrechten-dottingen,47.8616647,7.697797
bochumer strasse 6 | 51145 köln,50.89182875,7.0774040055025935
maisborsteler strasse 16 | 24819 todenbüttel,54.126219649999996,9.573114380577113
chromstrasse 3 | 30916 isernhagen,52.48480085,9.805447065234702
treiet 6 | 6833 weiler,47.30459995,9.650817662752722
an den höfen 15 | 46569 hünxe,51.5964426,6.741257074530862
dresdener strasse 25 | 04924 bad liebenwerda,51.515415250000004,13.4103116
stralauer platz 33-34 | 10243 berlin,52.5085987,13.4347905
bahnhofstrasse 20a | 90559 burgthann,49.347167,11.3101902
am doll 1 | 03042 cottbus,51.762210749999994,14.346784110845043
daimlerstrasse 6-8 | 72639 neuffen,48.5638954,9.383231893016603
lehmkuhlenweg 10 | 25856 hattstedt,54.5243845,9.0313979
am buchenberg 35 | 32479 hille,52.2750879,8.7663186164108
kybergstrasse 19 | 82041 oberhaching,48.0259455,11.5916958
breitenfurter strasse 264 | 1230 wien,48.1448903,16.2935749
anraffer strasse 8 | 34537 bad wildungen,51.1285296,9.1288981
dessauer strasse 9 | 55545 bad kreuznach,49.847874250000004,7.852767245140798
elisabethstrasse 14a | 45139 essen,51.461998300000005,7.038010061522252
rosenweg 4 | 5162 obertrum am see,47.938082699999995,13.069966749999999
von-erckert-platz 21 | 81827 münchen,48.1146461,11.708713
am königsweg 14 | 48599 gronau,52.1727772,7.062797505855458
ketteler strasse 5 | 59929 brilon,51.4010705,8.57761880609349
obertraublinger strasse 3 | 93055 regensburg,48.9941107,12.136758
ferdinandstrasse 41 | 20095 hamburg,53.55347435,9.99945356046327
schlickweg 3 | 25924 emmelsbüll-horsbüll,54.8202591,8.7504686
bünder strasse 14 | 32120 hiddenhausen,52.134859,8.661838
amberger strasse 18 | 92431 neunburg,49.346266,12.3734193
isarstrasse 1 | 65451 kelsterbach,50.0373174,8.4781891
otto-hahn-strasse 23 | 48529 nordhorn,52.3988999,7.0674843
am scherhübel 6 | 92253 schnaittenbach,49.549628600000005,12.022442152246953
hilsstrasse 51c | 31073 delligsen,51.9414786,9.7902327
talstrasse 13 | 84032 altdorf,48.572217,12.0768178
weißensteinstrasse 2 | 81249 münchen,48.1527615,11.4161282
liebstädter straße 2 | 01768 glashütte / schlottwitz,50.868922600000005,13.812988326772942
finkenwerder süderdeich 21 | 21129 hamburg,53.5207496,9.86743914869062
pfarrer-kneidinger-strasse 12 | 85406 zolling,48.453933,11.7762095
ritter zoppel-strasse 1 | 2215 raggendorf,48.39306275,16.656288103432402
hauptstrasse 3 | 56332 lehmen,50.2878981,7.4553425
voltenseestrasse 2 | 60388 frankfurt,50.1458932,8.746677659568089
gewerbestrasse 1 | 4653 eberstalzell,48.0457312,13.99285929892822
zeppelinstrasse 1 | 12529 schönefeld,52.3671057,13.5597971
zur hafenspitze 2 | 19322 wittenberge,52.988148800000005,11.767417047421436
seefeld 40 | 23843 bad oldesloe,53.8478318,10.3706103
ostermoorweg 9 | 25541 brunsbüttel,53.9080737,9.1811008
rudolf-grenzebach-strasse 20 | 86663 hamlar,48.7012715,10.823136
englerstrasse 4 | 69126 heidelberg,49.36765735,8.682926573875346
weilbolden 18 | 4972 utzenaich,48.2887149,13.4880496
bentstreeker strasse 7 | 26446 friedeburg,53.394643099999996,7.840556096451868
sandhöfener strasse 42a | 33106 paderborn,51.75023805,8.650566210151421
gischower strasse 1 | 19386 lutheran,53.4525785,12.00619305
st.-jürgener-strasse 60a | 24837 schleswig,54.53487185,9.578436450000002
peter-schmidts-weg 50 | 25899 niebüll,54.7794921,8.8346052
wiener strasse 17 | 2361 laxenburg,48.071098,16.3552234
gradestrasse 92 | 12347 berlin,52.4544491,13.4247571
putlitzer strasse 14f | 19357 karstädt,53.1595363,11.7392458
kammergartenstrasse 8 | 61200 wölfersheim-wohnbach,50.4302147,8.8318369
hans-loch-strasse 14 | 16515 oranienburg,52.7472399,13.269056973717952
moosfeldweg 8 | 90427 nürnberg,49.5137919,11.044718102639555
totenkopfstrasse 41 | 67487 st. martin,49.30151965,8.106733333492535
wolfholzgasse 28 | 2345 brunn am gebirge,48.11840445,16.29521328391828
roseggerstrasse 81 | 4614 marchtrenk,48.201651150000004,14.132800890555739
westfalendamm 275 | 44141 dortmund,51.50351715,7.510413010240113
ehethal 11 | 94351 feldkirchen,48.836861850000005,12.56905525314989
herrnhuter strasse 22 | 02747 berthelsdorf,51.0249323,14.759003352715466
siedlung 18a | 39646 oebisfelde,52.42160425,11.0168005568189
max-eyth-strasse 3 | 72186 empfingen,48.394829,8.72800703818956
schwedenschanze 110c | 49809 lingen,52.5125535,7.3320785
gutenbergring 65-67 | 22848 norderstedt,53.659424,9.983108353526655
bahnhofstrasse 28 | 66111 saarbrücken,49.2342962,6.9951899
danziger strasse 31 | 46045 oberhausen,51.4708524,6.862166744582723
kniebos 11 | 83278 traunstein,47.8697934,12.650765809758393
inselstrasse 1 | 44143 dortmund,51.5191653,7.484851968914921
hinter dem turm 31 | 55286 wörrstadt,49.83772045,8.126369545059003
buchklinger weg 17 | 69517 gorxheimertal,49.54200455,8.707808074480278
rheinstrasse 116 | 68649 groß-rohrheim,49.718844700000005,8.478849649999995
kückshauser strasse 74 | 44265 dortmund,51.4306567,7.500824830266712
mühlstrasse 7a | 86381 krumbach,48.24464375,10.364079987171888
landstrasse 70 | 2245 velm-götzendorf,48.46830305,16.791454082413154
reichenberger str. 10 | 63500 seligenstadt,50.05647615,8.967886607868824
fischkai 1 | 27572 bremerhaven,53.5220177,8.5835514
gablenzgasse 41 | 1150 wien,48.2046852,16.32613873403327
moselstrasse 15 | 41464 neuss,51.1787788,6.682066338800906
neuendorfer strasse 1 | 13585 berlin,52.5408504,13.206315499999999
wurmbenden 8 | 52070 aachen,50.79472755,6.120311615765376
goslarsche strasse 35 | 38118 braunschweig,52.2665392,10.5046763
wettenbostel 9 | 29565 wriedel,53.0753682,10.2831177
"martin- buber- str., | 14163 berlin",52.4353105,13.2581765
unterlüßer strasse 17 | 29578 eimke,52.916311300000004,10.34234380219057
pohlmann's weg 11 | 32257 bünde,52.203036049999994,8.519962727540161
hinter dem bahnhof 5 | 06749 bitterfeld,51.625641599999994,12.314268068075076
max-planck-strasse 8 | 85098 großmehring,48.79036895,11.506835637230216
rothbäk 10 | 18198 kritzmow,54.0732764,12.05756519895235
ernst-gläser-strasse 9 | 08258 markneukirchen,50.311825,12.3703807
seefelder strasse 28 | 82211 herrsching,48.0203649,11.1919932
siemensstrasse 31 | 47533 kleve,51.812408000000005,6.137191625891732
hauptstrasse 86 | 26639 wiesmoor,53.422183649999994,7.746706950000006
äulemer weg 32 | 79837 st. blasien,47.8214516,8.073151950909093
kremsnerstrasse 4 | 4533 piberbach,48.1115358,14.206385482907848
bramfelder drift 11 | 22175 hamburg,53.6305845,10.085946564244155
eschershäuser strasse 7 | 37632 eimen,51.8865994,9.749950502894574
von-speth-strasse 19 | 88499 zwiefaltendorf,48.214996049999996,9.516700499580983
13 industriestr. | 86405 meitingen,48.5192191,10.8516914
corneliusstrasse 18 | 40215 düsseldorf,51.216429500000004,6.783023617281378
eimsbütteler strasse 36 | 22769 hamburg,53.5658423,9.9550281
schneppenheimer weg 34 | 53881 euskirchen,50.68734995,6.8259989271241786
bei der industriestrasse 1 | 86720 nördlingen,48.861501,10.5098252
hauptstrasse 53 | 09629 reinsberg,50.9996643,13.4022048
dresdner strasse 13 | 09599 freiberg,50.9169956,13.3530908
hahnenbalz 35 | 90411 nürnberg,49.5119198,11.1092157
mohnweg 2 | 73663 berglen,48.8863298,9.461028890271008
willy-brandt-platz 6 | 68161 mannheim,49.4799004,8.4711221
am sportplatz 2 | 37124 göttingen,51.47306225,9.892085999999999
berliner strasse 120 | 10713 berlin,52.4862744,13.3179638
naumburger strasse 28 | 04229 leipzig,51.326724150000004,12.32882714841547
bibraer strasse 17 | 98631 grabfeld,50.47081,10.441124712120283
franz mair-strasse 5-7 | 2232 deutsch wagram,48.296155549999995,16.554705303630485
im vogelsang 91 | 45527 hattingen,51.3984769,7.2130709
theodor-körner-strasse 22 | 18106 rostock,54.1243687,12.032596
ramsau 5a | 83533 edling,48.0762508,12.1456199
transportstrasse 18 | 9300 st. veit an der glan,46.75805885,14.351690399999999
dompeweg 17 | 58802 balve,51.3567156,7.8815492
gewerbering 5 | 08112 wilkau-haßlau,50.6859443,12.513803494157578
davidgasse 87-89 | 1100 wien,48.1731422,16.377028
eichendorffstrasse 31 | 06198 beesenstedt,51.5701046,11.7430371
durmersheimer strasse 151 | 76189 karlsruhe,48.9958839,8.345628146786837
am johannesgarten 9 | 36318 schwalmtal,50.6538267,9.2669028
veit-stoß-ring 65 | 24539 neumünster,54.07169425,10.019263850000002
triftweg 35 | 04874 belgern,51.48762035,13.117547380022136
fürther strasse 306 | 90429 nürnberg,49.4617568,11.0242891
oberneulander landstrasse 91a | 28355 bremen,53.095907249999996,8.929831149999995
berghammerweg 18 | 85579 neubiberg,48.0843598,11.632791023765432
immenburgstrasse 40 | 53121 bonn,50.732937899999996,7.075775111874117
bochumer strasse 12 | 28199 bremen,53.05884115,8.7826009
vor dem tore 1 | 39343 rottmersleben,52.2106685,11.3959045
peterstaler strasse 33 | 69118 heidelberg,49.4211188,8.7555211
mörzheimer strasse 2 | 76831 ilbesheim,49.1797403,8.0581188
hubertusstrasse 41 | 63619 bad orb,50.2256998,9.339516316483644
egellsstrasse 21 | 13507 berlin,52.580432900000005,13.2839757290226
schnorrstrasse 70 | 01069 dresden,51.033886,13.7409397
nümbrechter strasse 20 | 51674 wiehl,50.9426942,7.582267
39 avenue leonard de vinci | 37270 montlouis sur loire,47.3966207,0.803854
rue de la fontaine | 21220 chambolle musigny,47.186143,4.950131
5 place de l'europe | 21190 chassagne montrachet,46.9382411,4.7305216
limbeckstrasse 61 | 44894 bochum,51.495490149999995,7.313583743271831
kasernstrasse 80 | 8041 graz,47.04607755000001,15.447137924708429
wittener str. 45 | 44789 bochum,51.47854495,7.229049790293047
pawiker str. 30 | 45896 gelsenkirchen,51.5969042,7.032092035067873
georg-meier-strasse 1 | 32257 bünde,52.209012799999996,8.61359228805242
zwergberg 8-10 | 75446 wiernsheim,48.8884428,8.8814868
gustav-adolf-strasse 20 | 65462 ginsheim-gustavsburg,49.9960424,8.3209138
mittelstrasse 37 | 32758 detmold,51.9585917,8.8860201
kühbergstrasse 16 | 2564 fahrafeld,47.974243400000006,16.063203701806444
rennweg 75 | 1030 wien,48.192961249999996,16.393225884716962
12 rue de l'oise | 95540 mery sur oise,49.0627053,2.1629768
2 rue du grand sermon | 62170 montreuil,50.4656943,1.7619045
ludwigstrasse 47 | 70176 stuttgart,48.773145,9.16054709877451
radegundgasse 16 | 2700 wiener neustadt,47.7988028,16.230643
loh 7 | 84405 dorfen,48.2654772,12.2176817
alfstrasse 36 | 23552 lübeck,53.868283,10.6809617
panoramastrasse 35 | 88284 wolpertswende,47.8906712,9.611367375921658
austrasse 30 | 75057 kürnbach,49.07797515,8.85080585
sternstrasse 12 | 47798 krefeld,51.3379692,6.5596042
donaustrasse 55 | 93077 bad abbach,48.94782145,12.017200595919313
steinackerstrasse 15 | 57334 bad laasphe,50.92799745,8.409315551184054
rauentaler strasse 4 | 76437 rastatt,48.85738995,8.209327491163677
ländgasse 50 | 84028 landshut,48.534586700000006,12.149299264841176
karlstrasse 66 | 74405 gaildorf,48.9982803,9.7726066
obere königstrasse 19-21 | 96052 bamberg,49.8970013,10.8930302
jägersberg 16 | 91322 gräfenberg,49.6445096,11.2527948
scheidter strasse 24-42 | 66123 saarbrücken,49.2393637,7.012128485758311
am sand 14 | 94209 regen,48.969280299999994,13.125273220259167
oberleinleiter 6 | 91332 heiligenstadt,49.8827237,11.1294318
eggerbachstrasse 22 | 91330 eggolsheim,49.7877092,11.0921413
eichelweg 9-14 | 95445 bayreuth,49.9393756,11.5539308
gartenstr. 5 | 15938 golßen,51.9707298,13.6055765
wildgarten 12 | 97475 zeil,50.0152333,10.5809685
dinkelsbühler strasse 5 | 91599 dentlein a. forst,49.1469373,10.421731
heiningerstrasse 28 | 91550 dinkelsbühl,49.06750335,10.344209953420382
sattlertorstrasse 14 | 91301 forchheim,49.7206642,11.056739
roonstrasse 33 | 50674 köln,50.930595,6.9384721
roßmühle 10 | 91781 weißenburg,49.0312201,10.9748984
hauptstrasse 36-38 | 91278 pottenstein,49.771044,11.4094555
marktplatz 5 | 94116 hutthurm,48.6718562,13.4718198
ohlmüllerstrasse 44 | 81541 münchen,48.1225404,11.5817768
st.-oswald-strasse 4 | 83278 traunstein,47.8656858,12.6420869
wunderburg 5 | 96050 bamberg,49.8904428,10.905635362012786
luitpoldstrasse 11 | 96114 hirschaid,49.8158074,10.987140597978161
further strasse 10 | 93473 arnschwang,49.27421065,12.817657522489837
neunspringer strasse 4 | 37339 worbis,51.426159049999995,10.352730049999995
hauptstrasse 11 | 95519 schlammersdorf,49.80200645,11.73394979588263
braunauer strasse 12 | 4950 altheim,48.24932844999999,13.229185260013566
grießemer strasse 2a | 32683 barntrup,52.0036553,9.1739131
rothmoos 2 | 83128 halfing,47.954109200000005,12.235737603471353
memminger strasse 8 | 87767 niederrieden,48.0560461,10.1797685
eberbacher weg 57 | 64743 beerfelden,49.5648143,8.977350209430082
salzburger strasse 10-14 | 83367 petting,47.8840443,12.8547564
heroldstrasse 12 | 91207 lauf,49.5153578,11.2798174
rotenbacher weg 2 | 88316 isny,47.696201650000006,10.043376923878373
schlößleweg 3 | 89231 neu-ulm,48.40309635,10.020354024832454
pointstrasse 1 | 96117 memmelsdorf,49.9584241,10.956433746573454
hainweg 13 | 99425 weimar,50.9583726,11.3500982
hauptstrasse 13 | 91468 gutenstetten,49.615851649999996,10.629843676767285
bahnhofstrasse 7 | 92670 windischeschenbach,49.7980374,12.1594834
marktplatz 27 | 94419 reisbach,48.5731902,12.6265999
reithausplatz 21 | 71634 ludwigsburg,48.8992028,9.188794
hauptstrasse 18 | 91617 oberdachstetten,49.4157251,10.423081424594695
weiher 13 | 96191 viereth-trunstadt,49.912867750000004,10.751585964635357
im dorf 5 | 72531 hohenstein,48.348361499999996,9.375655474235788
altdrossenfeld 8 | 95512 neudrossenfeld,50.0118356,11.495884429200409
alte reichsstrasse 50 | 96215 lichtenfels,50.15277395,11.08675243410448
bamberger strasse 9 | 91301 forchheim,49.721999249999996,11.059145223581822
am lohmühlbach 8 | 85356 freising,48.388454,11.7607545
markt 30 | 97421 schweinfurt,50.045975049999996,10.23377851441095
feldschlößchenstrasse 4 | 07973 greiz,50.6565952,12.2303742
westring 5 | 96149 breitengüßbach,49.96370075,10.882070426520979
kornmarkt 6 | 91438 bad windsheim,49.5019264,10.4160814
kellerstrasse 11 | 91315 höchstadt,49.6903193,10.9327179
kirchhellener ring 80-82 | 46244 bottrop,51.6069973,6.9198166
jockuschstrasse 3 | 58511 lüdenscheid,51.21488,7.6308537
klingenbrunnstrasse 22-26 | 97422 schweinfurt,50.0522859,10.2336229
overhagenweg 1 | 48653 coesfeld,51.9368678,7.156698969890052
hühlstrasse 4-6 | 59269 beckum,51.7553752,8.0394756
wiesenmühlenstrasse 13 | 36037 fulda,50.551085150000006,9.668154568497986
markt 6 | 06886 lutherstadt wittenberg,51.8660158,12.6439112
waldstrasse 1 | 54340 naurath,49.8808567,6.7485638
am werderpark 5 | 31224 peine,52.32115335,10.230580255579412
axiener strasse 1 | 06925 annaburg,51.7080792,12.8706375
seestrasse 57 | 73349 wiesensteig,48.5616677,9.616317200281163
otto-hahn-strasse 17 | 73230 kirchheim,48.6339865,9.472186277269861
kapuzinerstrasse 75a | 94032 passau,48.57104095,13.48238879748884
sunderweg 10 | 33649 bielefeld,51.979207099999996,8.490216916080712
am eichbaum 5a | 60437 frankfurt,50.20213525,8.716453750000001
bohninger weg 1b | 79206 breisach,48.0111952,7.6359799
landauer strasse 100a | 66482 zweibrücken,49.2475217,7.36722
robert bosch str 3 | 78073 bad dürrheim,48.0311013,8.531607657534188
windhukstrasse 1 | 28237 bremen,53.1294328,8.7266481
löwenhof | 28844 weyhe,53.0133377,8.8754045
paul-geheeb-strasse 9 | 64646 heppenheim,49.666419700000006,8.681684000000004
wiesenstrasse 6 | 66887 ulmet,49.58685745,7.457126891362053
ostlandstrasse 2 | 78354 sipplingen,47.7959463,9.101391115648417
geisbergstrasse 20 | 97922 lauda-königshofen,49.54447065,9.7036597
krötenpfuhl 8 | 53340 meckenheim,50.59159235,7.0166186694679835
rothenburger strasse 1 | 91583 schillingsfürst,49.286756499999996,10.259581401255238
schafhausweg 5 | 97900 külsheim,49.667015750000004,9.517989751611694
zwischenweger 10 | 6406 oberhofen im inntal,47.3009194,11.098638706187568
grieser strasse 2 | 66901 schönenberg-kübelberg,49.412157449999995,7.390016747105391
im kleinen feld 5 | 67150 niederkirchen,49.411566199999996,8.20827388531856
innstrasse 2 | 6122 fritzens,47.3005821,11.597199333737551
käsgasse 7 | 67294 ilbesheim,49.69038525,8.077948141271303
obere windeckstrasse 13 | 77815 bühl,48.669668099999996,8.14993484066214
lange gasse 16 | 72581 dettingen,48.53100105,9.34503260080049
marienthal 3 | 94469 deggendorf,48.85227745,12.991006240915432
seestrasse 5a | 83727 schliersee,47.7336149,11.8654914
aspenstrasse 6 | 87727 babenhausen,48.1481158,10.2598796
helliger weg 24 | 32139 spenge,52.1473089,8.458145485500417
bahnhofstrasse 37 | 86514 ustersbach,48.3232576,10.6532627
schiffenberger weg 421 | 35394 gießen,50.5510722,8.72221485
friedensstrasse 47 | 36148 kalbach,50.3826661,9.711619
schorndorfer strasse 32/1 | 73061 ebersbach,48.73285505,9.507246304477073
windmühlberg 17 | 02747 herrnhut,50.995069,14.7062508
am hauptbahnhof 27 | 45127 essen,51.4511663,7.0126522
sperlingweg 19 | 5023 salzburg,47.82376005,13.077210048752825
hubertusstrasse 16 | 47638 straelen,51.4477431,6.2847194
westhafenstrasse 1 | 13353 berlin,52.5369734,13.3417491
st. eligiusstrasse 2 | 54662 herforst,49.9464182,6.6970649
schülerstrasse 16 | 32108 bad salzuflen,52.0726013,8.756111088051624
hans-loher-strasse 1 | 94099 ruhstorf,48.436187700000005,13.334060174759824
bahnhofstrasse 7 | 94051 hauzenberg,48.6473549,13.6279243
kalkwerk 6 | 91320 ebermannstadt,49.7867539,11.1893573
rhein-mosel-strasse 30 | 56283 gondershausen,50.1610015,7.4981448
an der autobahn 31 | 68789 st. leon-rot,49.26071295,8.610421818004628
ringstrasse 11 | 01987 schwarzheide,51.47203775,13.857062808783509
spelzengasse 50 | 65474 bischofsheim,49.9879852,8.357150407412984
zum steinkopf 9 | 54426 malborn,49.7151255,6.987934777167458
freiheiter strasse 12/13 | 34576 homberg,51.032423,9.4033493
dorfstrasse 33 | 15827 blankenfelde,52.303701,13.3822887
stahlbachstrasse 5 | 61137 schöneck,50.219501,8.834269205058652
stralsunder strasse 146 | 04349 leipzig,51.3914111,12.446930002742999
horschmühlenweg 1 | 34613 schwalmstadt,50.90750995,9.173686886653911
erfurter strasse 4 | 99734 nordhausen,51.4934824,10.79658077329303
im piepershagen 14 | 46325 borken,51.8458111,6.8564087
robert-koch-strasse 4 | 21423 winsen,53.34134695,10.22906238519334
in steckenborn 39 | 52152 simmerath,50.629307499999996,6.351103650463357
friesenstrasse 2 | 10965 berlin,52.4887036,13.3942331
löfflerweg 22b | 6060 hall in tirol,47.27444495,11.473550815263426
ahornweg 6 | 75378 bad liebenzell,48.7593914,8.797074806650656
hanauer landstrasse 215 | 60314 frankfurt,50.1149007,8.721475008875647
gewalterberg 3 | 45277 essen,51.4362148,7.076927480749665
müggendorfer strasse 55 | 21762 otterndorf,53.8132555,8.8818519
platz 80-82 | 42855 remscheid,51.2057561,7.1735481
alfredstrasse 110-112 | 45131 essen,51.4256774,6.9998334
isarstrasse 3 | 82065 baierbrunn,48.0276098,11.4938053
schloßwiesenstrasse 27 | 72175 dornhan,48.3939924,8.537232402301127
claudiusstrasse 40 | 41540 dormagen,51.07239765,6.816284528315217
brudersdorf 22 | 92507 nabburg,49.4545433,12.1071037
gainstorfer strasse 8 | 94501 aldersbach,48.60884,13.0420281
am wambach 17 | 48485 neuenkirchen,52.2315598,7.3787994
homberger weg 13 | 34497 korbach,51.2882891,8.8572162
neufang 31 | 3483 feuersbrunn,48.44261955,15.788659254895464
wiener neustädter strasse 27 | 2542 kottingbrunn,47.948388249999994,16.225007694548047
bachgasse 3 | 6850 dornbirn,47.4323402,9.7529284
sperberweg 4i | 41468 neuss,51.16689545,6.747275964657401
latresne | 33360 latresne,44.785298,-0.4943
winzerstrasse 1 | 97334 sommerach,49.8289027,10.2040034
stuttgarter strasse 73 | 72555 metzingen,48.5428056,9.27411638568282
moosweg 4 | 49740 haselünne,52.666801050000004,7.396248735085434
westerholzer weg 10 | 27356 rotenburg,53.1213075,9.414280914225055
bremer heerstrasse 128 | 26135 oldenburg,53.125848649999995,8.241976899999997
hildebrandgasse 20/1 | 1180 wien,48.2214393,16.3371841
siemensstrasse 15 | 63165 mühlheim,50.1133609,8.843483637111515
galgenbühlstrasse 5 | 91207 lauf,49.5100444,11.2716803
zayastrasse 12 | 2193 wilfersdorf,48.5803985,16.63961430574866
gildenweg 2 | 2483 ebreichsdorf,47.9552033,16.412302955781673
wettgasse 20 | 74743 seckach,49.44588355,9.287969328764154
große strasse 33 | 49134 wallenhorst,52.3513692,8.012930742497232
hundehäger weg 5 | 18236 kröpelin,54.0779568,11.794788947506083
bahnhofstrasse 2a | 95028 hof,50.31165405,11.91392804175519
heinrich-hertz-strasse 28 | 40699 erkrath,51.1989727,6.919287990365239
günzburger strasse 100 | 89423 gundelfingen,48.5497919,10.3671413
elsenthaler strasse 5-7 | 94481 grafenau,48.8558025,13.3922529
pfenningsbusch 29 | 22081 hamburg,53.581762850000004,10.04794350348297
mayrwiesstrasse 25-27 | 5300 hallwang,47.8352925,13.0849116
wilhelm-röntgen-strasse 1 | 58300 wetter,51.3651249,7.374218428298406
rösrather strasse 759 | 51107 köln,50.92039655000001,7.096708854493413
windhof 3 | 76889 schweighofen,49.0383127,7.9678075
seniweg 4 | 82538 geretsried,47.8554684,11.4930348
bessemerstrasse 24-26 | 12103 berlin,52.4667742,13.367125
jurastrasse 2 | 73119 zell,48.6481741,9.5619062232665
josef strebl-gasse 10 | 2345 brunn am gebirge,48.1139776,16.300188014644572
uferstrasse 1a | 91456 diespeck,49.6073657,10.5879874
schütte-lanz-strasse 4 | 26135 oldenburg,53.1139778,8.263408751166637
santorastrasse 3 | 2482 münchendorf,48.039949500000006,16.383185671396262
obere schildstrasse 15 | 96050 bamberg,49.8911972,10.911337669192307
hauptstrasse 82 | 77886 lauf,48.6476748,8.1278617
ostheide 4 | 59609 anröchte,51.52077675,8.241018865960303
zeißstr. 12 | 71254 ditzingen,48.8199895,9.077196959020853
dieselstrasse 58 | 66763 dillingen,49.37607165,6.70839374804513
brauereistrasse 7 | 47877 willich,51.2634176,6.5515286
bindlacher str. 10 | 95448 bayreuth,49.9668196,11.6073062
lohweg 38 | 91217 hersbruck,49.50696135,11.42768705160111
am brunnen 2 | 85283 wolnzach,48.6086583,11.6172985
kasseler strasse 57 | 34308 bad emstal,51.24449955,9.260967108678347
theaterstrasse 19 | 97070 würzburg,49.7956518,9.9352551
ottilienstrasse 5 | 90461 nürnberg,49.4413986,11.0920581
9 route du vin | 68630 mittelwihr,48.1522895,7.3209031
robert-koch-strasse 10 | 53859 niederkassel,50.8254352,7.0344459
grobsdorfer strasse 23 | 07554 korbußen,50.8796352,12.165296
rudolf-diesel-ring 21 | 82054 sauerlach,47.968956,11.6622993
ruhrstrasse 1 | 44579 castrop-rauxel,51.5881612,7.299212444109518
steinstrasse 5 | 27442 gnarrenburg,53.3581817,9.0197889
unterm wahlberg 37 | 35708 haiger,50.7898598,8.2020825
sprudelstrasse 3 | 53557 bad hönningen,50.5146311,7.319188
vinzenz-muchitsch-strasse 2-4 | 8020 graz,47.0500071,15.4281376
nebingerstrasse 6 | 4020 linz,48.29782195,14.32561536328765
mellinghofer strasse 226 | 45475 mülheim,51.45458105,6.885655800000002
dieselstrasse 27 | 48485 neuenkirchen,52.253942949999995,7.3824517485840495
jakobstr. 8 | 54290 trier,49.75744280000001,6.6398364245184265
hamburger strasse 27d | 22952 lütjensee,53.6571746,10.368771
daimlerstrasse 2 | 73431 aalen,48.8260561,10.06870756974386
kreuzäckerstrasse 34/1 | 70794 filderstadt,48.64851125,9.221432074895485
ufaer strasse 6 | 06128 halle (saale),51.45713335,11.947468119330262
karl-marx-damm 85 | 15526 bad saarow,52.27383985,14.060393849999999
sackstrasse 29 | 8010 graz,47.0740062,15.4351271
halskestrasse 21 | 40880 ratingen,51.305649900000006,6.830014971443623
untere waldplätze 2 | 70569 stuttgart,48.73146795,9.0874853675
georg-wimmer-ring | 85604 zorneding,48.0923007,11.8227711
friedrich-ebert-anlage 26 | 69117 heidelberg,49.40813625,8.698505698589067
hafenstrasse 15 | 31137 hildesheim,52.172687350000004,9.93031535
pinkertweg 7 | 22113 hamburg,53.5277744,10.084723816912032
am wasserturm 35e | 29223 celle,52.6353142,10.0861225
bahnhofstrasse 12 | 95444 bayreuth,49.948948400000006,11.57909582711268
ruhwaldstrasse 31 | 16540 hohen neuendorf,52.668523199999996,13.28785632403542
am neumarkt 30 | 22041 hamburg,53.57460825,10.088615401876329
kronenstrasse 1 | 79618 rheinfelden,47.56007,7.7907631
niederau 15 | 96250 ebensfeld,50.0819222,10.9470223
schmalenbrook 7 | 24647 wasbek,54.0719207,9.914188835138628
hohenzollernstrasse 46 | 42551 velbert,51.34561445,7.046777951258072
am sandtorkai 2 | 20457 hamburg,53.5439625,9.995964836485413
thanhof 9 | 93173 wenzenbach,49.0568407,12.1387804
passauer strasse 18 | 94161 ruderting,48.6533335,13.4083395
sandsteen 1 | 25821 breklum,54.6161761,8.9920085
21 rue marceau | 06000 nice,43.7074505,7.2658874
gilbertstrasse 52 | 54290 trier,49.7489579,6.631786907341137
an der sonnhalde 3-5 | 79336 herbolzheim,48.215665,7.7829908
graf-adolf-strasse 61 | 40210 düsseldorf,51.2187736,6.7858614
loisachauen 7 | 82467 garmisch-partenkirchen,47.5158114,11.1071143
in de tarpen 112 | 22848 norderstedt,53.6658344,9.9879253
waldwinkel 22 | 28759 bremen,53.1739254,8.663619449999999
provinostrasse 52 | 86153 augsburg,48.36439255,10.917989367516501
33 rue de prony | 75017 paris,48.8814466,2.3060125
gießener strasse 30 | 90427 nürnberg,49.518241,11.0048099
storchshalde 200 | 70378 stuttgart,48.84691125,9.239197401185084
bahnhofstrasse 7 | 71034 böblingen,48.6856823,9.0087238
schleswiger strasse 103 | 24941 flensburg,54.7666321,9.4358438
hocksteinweg 10 | 14165 berlin,52.411649499999996,13.258407647061745
immermannstrasse 23 | 39108 magdeburg,52.1352301,11.608274372950346
schillerstrasse 98 | 63741 aschaffenburg,49.9851915,9.132066050000002
10 rue d'ezy | 27540 ivry la bataille,48.8823789,1.4586914
am römerfeld 9a | 47877 willich,51.2558596,6.4795967
monschauer strasse 10-32 | 41068 mönchengladbach,51.194192,6.4102461
mendelssohnstrasse 6 | 88250 weingarten,47.812591350000005,9.659450038006295
pfarrplatz 4 | 2500 baden,48.0100028,16.237056798480467
conrad-von-patzenhofer-strasse 1 st | 7021 draßburg,47.7507485,16.4843573
dorfstraße 19 | 06369 trebbichau an der fuhne,51.6468186,11.9506131
franz-kirrmeier-strasse 19 | 67346 speyer,49.3280885,8.4477959
30 boulevard de sebastopol | 75004 paris,48.8610974,2.3498755
3 rue hippolyte lucas | 35000 rennes,48.1096806,-1.6714011
6 rue de la garenne | 44700 orvault,47.2593748,-1.6446118
marktgasse 5 | 85072 eichstätt,48.8931345,11.1849794
borsigstrasse 7 | 40880 ratingen,51.302485450000006,6.836134055797102
gildeweg 10 | 46562 voerde,51.619047,6.673305161382393
victor-slotosch-strasse 26 | 60388 frankfurt,50.142941300000004,8.742888909170684
bergedorfer strasse 8 | 28219 bremen,53.10557265,8.785452675403995
dieselstr. 88 | 42389 wuppertal,51.2830884,7.259140307402124
heerstrasse 411 | 13593 berlin,52.5192511,13.1649883
stiepeler strasse 68h | 44799 bochum,51.4507568,7.238586116132811
messenhäuser strasse 45 | 63322 rödermark,49.9825856,8.80518855
bäckerstrasse 12 | 84577 tüßling,48.2013026,12.5899007
schafmatt 5 | 79618 rheinfelden,47.573341,7.7959022
ausschläger elbdeich 62 | 20539 hamburg,53.53004445,10.047249504717854
bei der lohmühle 84 | 23554 lübeck,53.8786461,10.6719687
werkstrasse 12 | 25497 prisdorf,53.6739482,9.7703048
industriestr. 26 | 71720 oberstenfeld,49.0217006,9.328058061144578
schützenstr. 38 | 22761 hamburg,53.5684778,9.9289036
weißenburger str. 40 | 76829 landau,49.1851088,8.1142802
eiderstrasse 10 | 28219 bremen,53.0984096,8.7921386131579
alte bemeroder strasse 108 | 30539 hannover,52.3444063,9.8231771
vossen links 13 | 40545 düsseldorf,51.22655455,6.754290901853459
birgden iii 1 | 42855 remscheid,51.200601250000005,7.20300909962098
bürgermeister-smidt-str. 56 | 28195 bremen,53.08163895,8.806926666676532
hildenbrandstrasse 1 | 63743 aschaffenburg,49.96133055,9.161032888020243
trotzendorfstrasse 17 | 56242 selters,50.5306329,7.7492714
73 c rue du général leclerc | 67570 la claquette,48.4623956,7.2069424
gerhardstrasse 88a | 66333 völklingen,49.2533401,6.878337117036546
mühlenfeld 10 | 47807 krefeld,51.314308049999994,6.568598366708409
königskämpe 1 | 48565 steinfurt,52.11910095,7.4115875163364215
vietorstrasse 87 | 51103 köln,50.9418732,6.999189567627512
baurat-wiese-strasse 192a | 21255 königsmoor,53.2249894,9.6840997
lärchenbergweg 2a | 02681 schirgiswalde-kirschau,51.0799216,14.4244415
löwenstrasse 8a | 77966 kappel-grafenhausen,48.2931341,7.7427086
ährenweg 14 | 79258 hartheim,47.9377553,7.6373733
carl-benz-strasse 11 | 74889 sinsheim,49.253321549999995,8.862351340178293
august-wolff-strasse 13 | 29699 bomlitz,52.9061758,9.66316010536128
sattlerstrasse 1 | 97421 schweinfurt,50.054624950000004,10.30871924498567
geseker strasse 31-33 | 33154 salzkotten,51.6715351,8.6024064
industriestrasse 25 | 46499 hamminkeln,51.738513299999994,6.602597048167317
mairie | 82340 dunes,43.6401334,-1.4317915
71700 martailly les brancion,46.5319621,4.8018186
2 place andre rochette | 33480 castelnau de medoc,45.0273555,-0.7975143
17 rue beauregard | 85120 la chataigneraie,46.6482558,-0.7335849
immecker strasse 6 | 58540 meinerzhagen,51.105342449999995,7.653622175936853
"53 avenue henri iv, | 64290 gan",43.2366054,-0.38927872441118827
route de beaune | 21550 ladoix serrigny,47.0709347,4.8739479
110 avenue de la liberation | 63200 riom,45.9489441,3.0917779
10 boulevard desaix | 63000 clermont ferrand,45.7772305,3.0831177
brückenstrasse 32 | 60594 frankfurt,50.10587075,8.687362835543615
hastedter heerstrasse 135 | 28207 bremen,53.0667253,8.865370992632492
viereck 17 | 22607 hamburg,53.57015815,9.870553677766521
10 rue du docteur joseph audic | 56000 vannes,47.6795126,-2.7739897
siegfriedstrasse 102 | 38106 braunschweig,52.28796715,10.530004937967776
13 rue georges auric | 75017 paris,48.8849427,2.3859531
römerstrasse 61 | 63128 dietzenbach,50.0336892,8.7849158
großenbaumer strasse 25 | 45481 mülheim,51.411894950000004,6.857214661363628
greppiner strasse 19 | 06766 wolfen,51.6600419,12.2765797
margarete-steiff-strasse 7 | 28844 weyhe,52.9698558,8.7929169
bücklestrasse 72 | 78467 konstanz,47.6772095,9.1693012
kirchhellener strasse 113 | 46145 oberhausen,51.53572985,6.861888275646214
berliner allee 106 | 13088 berlin,52.550038,13.459478
tegetthoffstrasse 7 | 1010 wien,48.2046538,16.3693979
buchholzberg 2 | 21255 tostedt,53.2792593,9.695453392828487
widdersdorfer strasse 205 | 50825 köln,50.9453805,6.902524191086548
friedrich-legahn-strasse 22 | 22587 hamburg,53.562849099999994,9.809076797155932
rentzelstrasse 13 | 20146 hamburg,53.5661766,9.9799906
blinke 59 | 26789 leer,53.2274453,7.442091
zeppelinstrasse 35-1 | 73760 ostfildern,48.7229656,9.226434
am angertor | 97618 wülfershausen,50.3274643,10.3335322
untergasse 52-54 | 35576 wetzlar,50.5732143,8.5068467
johannes-schmid-strasse 3-5 | 89143 blaubeuren,48.4025528,9.7818413
8 b rue des paiens | 49400 saumur,47.2564431,-0.0783182
allgäuer-strasse 20 | 86381 krumbach (schwaben),48.22223325,10.380107269851349
zum wartturm 7 | 63571 gelnhausen,50.21177025,9.16913331866682
gewerbebogen 8 | 85661 forstinning,48.1721949,11.9188086
kammeringstrasse 5 | 2353 guntramsdorf,48.0540544,16.30729953770414
9 av edouard belin | 92500 rueil-malmaison,48.8873905,2.1696769
41 b route du mazet | 43400 le chambon sur lignon,45.0566182,4.2936593
rheinstr. 2+4 | 77955 ettenheim,48.2619123,7.8016084
"24, rue d'isly | 16100 cognac",45.6880962,-0.3305854
piccoloministrasse 22 | 51063 köln,50.968844149999995,7.0280120987987456
am schaubacher berg 18 | 64401 groß-bieberau,49.80937215,8.82432885
pierlstrasse 12 | 9020 klagenfurt,46.62519135,14.29396565
lloydstrasse 12 | 28217 bremen,53.0856496,8.7894221
venloer strasse 309 | 50823 köln,50.94840345,6.919736282970572
91 rue gallieni | 92100 boulogne billancourt,48.8381405,2.2523281
24 rue armand sylvestre | 31500 toulouse,43.5917598,1.4726218
mörikestrasse 16 | 70178 stuttgart,48.7683562,9.1682183
22 rue gambetta | 51150 bouzy,49.078006,4.1476741
2 rue de beaumont | 51360 verzenay,49.1612461,4.1486195
2 rue de la chapelle cerseuil | cerseuil | 51700 mareuil le port,49.0736107,3.7314541
9 b rue jeanson | 51160 ay,49.0567593,4.0027128
6 rue de verzenay | 51380 verzy,49.1495945,4.1625078
burgeffstrasse 15 | 65239 hochheim,50.0124967,8.349381949999998
"des ponts, | 10110 buxeuil",48.0547215,4.3929914
2 bd de l ancien rempart | 51160 ay,49.0555248,3.9979697
nassauische strasse 24 | 10717 berlin,52.4894563,13.3262805
industriestrasse 3 | 47447 moers,51.415226000000004,6.597172707262997
bergstrasse | 69121 heidelberg,49.4214468,8.690791
kettelerweg 2 | 57462 olpe,51.02533375,7.847023043333217
schillerpromenade 4 | 12459 berlin,52.4628411,13.517334
ludwig-eckes-allee 6 | 55268 nieder-olm,49.9056618,8.2039514
rue nicéphore niepce | zi | 21700 nuits-saint-georges,47.1245639,4.9629453
kurfürstenstrasse 2 | 80799 münchen,48.1531642,11.576595
12 petite rue de la viabert | 69006 lyon,45.767367,4.864988
gartenstrasse 141 | 70771 leinfelden-echterdingen,48.6869335,9.1674625
76 rue du general de gaulle | 67130 la broque,48.4741713,7.216331
port de l'angle | 46140 parnac,44.4873083,1.3175033
jakoberstrasse 14 | 86152 augsburg,48.3697137,10.90286656056394
12 cours du médoc | 33300 bordeaux,44.8564818,-0.5648877
25 rue saint-vincent | 17240 saint dizant du gua,45.4326128,-0.7048032
"406, route de l\'armagnac | 40120 lacquy",43.96065,-0.266173
3356 avenue de parleboscq | 32800 eauze,43.8630487,0.0997154
1 peyrouton | 33350 pujols,44.8169777,-0.0262578
château garreau | 40240 labastide d'armagnac,43.9413342,-0.1763756
route de gruissan | 11100 narbonne,43.1024921,3.0914763
chemin de la genestière | 84380 mazan,44.0653328,5.1474915
bruckstrasse 31 | 70734 fellbach,48.8143128,9.280454444595716
nalepastrasse 10 | 12459 berlin,52.4809983,13.5012392
gewerbestrasse 8 | 71144 steinenbronn,48.6643629,9.1252466
wienerbergstraße 11/12a | 1100 wien,48.1687872,16.3490753
berbisdorfer strasse 13 | 09123 chemnitz,50.76800695,12.96774307526547
grevenweg 89 | 20537 hamburg,53.5511629,10.0418576
rue nungesser et coli 46 | 13405 berlin,52.5691766,13.2982607
heidekoppel 16 | 24558 henstedt-ulzburg,53.8120539,9.963308
ganghoferstraße 47 | 82216 maisach,48.2139784,11.2860922
teplitzer str. 14-16 | 84478 waldkraiburg,48.2075193,12.41132226282014
ludwigstrasse 6 | 67547 worms,49.63094045,8.368716594642555
meisenweg 26 | 64839 münster,49.9151138,8.895591251470588
waginger strasse 54 | 83362 surberg,47.8765349,12.6656356
klepperstrasse 17 | 83026 rosenheim,47.84807455,12.12062795
holzweg 16 | 67098 bad dürkheim,49.456554,8.1695712
helmkestrasse 5a | 30165 hannover,52.39923665,9.712154609484967
holzmühle 1 | 73494 rosenberg,49.0148439,10.061464998530944
bahnzeile 5 | 2130 mistelbach,48.5713624,16.568009732052897
blaise-pascal-strasse 3 | 32760 detmold,51.933702,8.918579529647893
weinbergstrasse 19 | 3610 weißenkirchen in der wachau,48.3865813,15.4557882
hauptstrasse 51 | 65344 eltville,50.0511164,8.121572
neustrasse 2 | 56072 koblenz,50.3860618,7.500902314392143
sportplatzstrasse 36 | 3371 neumarkt an der ybbs,48.13975495,15.063423900000004
obere marktstrasse 49 | 3481 fels am wagram,48.43913565,15.810896605379996
lange str. 100/106 | 27318 hoya,52.8061835,9.132297107409027
wallstrasse 82 | 50321 brühl,50.8290101,6.90310796970951
hauptstrasse 32 | 7063 oggau,47.8321575,16.6656252
ziegelstrasse 9-17 | 73431 aalen,48.8427153,10.1106825
friedenstrasse 15 | 75334 straubenhardt,48.8744738,8.5372153
neunkircher strasse 45 | 66780 rehlingen-siersburg,49.34201375,6.59172885
bahnhofstrasse 122 | 8990 bad aussee,47.6064557,13.783466883915075
rosenberger strasse 14 | 92237 sulzbach-rosenberg,49.50423565,11.7409490392771
hauptstrasse 33 | 2500 baden,47.9845512,16.2168083
lange zeile 31 | 7311 neckenmarkt,47.5982816,16.5467198
tarviser strasse 122 | 9020 klagenfurt,46.62019065,14.279047373111228
schulgasse 4 | 7122 gols,47.898974100000004,16.90489810536154
waldheimstrasse 59 | 9523 villach,46.62763095,13.866570493350347
bäumlegasse 33 | 6850 dornbirn,47.40488025,9.732210550000001
bayerische strasse 13 | 07356 bad lobenstein,50.44779525,11.63514495
großeckstrasse 244 | 8311 markt hartmannsdorf,47.0491991,15.841198130572755
rieslingstrasse 64 | 55430 oberwesel,50.095984,7.711042
mittergrabern 39 | 2020 hollabrunn,48.61683,16.01482603039696
neusiedlung 204 | 3921 langschlag,48.5726972,14.8800859
mörstädter strasse 7 | 67599 gundheim,49.67539655,8.240634683774584
obertraun 234 | 4831 obertraun,47.55793505,13.68076537365774
isselweg 10 | 06217 merseburg,51.3495431,11.9698328
13 rue sainte ursule | 31000 toulouse,43.6023199,1.4416739
charlottenstrasse 35 | 10117 berlin,52.5161382,13.3910029
itterstrasse 40 | 40589 düsseldorf,51.173696,6.829625623446759
kupferbergstrasse 59 | 67292 kirchheimbolanden,49.67015845,7.992537630563448
jahnstrasse 2 | 63505 langenselbold,50.175633700000006,9.04801862129666
melli-beese-strasse 32 | 90768 fürth,49.504874,10.9647278
bohrstrasse 12& 12a | 23966 wismar,53.8940656,11.4644271
bosenheimer strasse 286 | 55543 bad kreuznach,49.84923594999999,7.8971332717010965
pölkenstrasse 11 | 06484 quedlinburg,51.78868225,11.148037148258869
august-bebel-strasse 29-31 | 63329 egelsbach,49.9676782,8.6740024
am seehafen 1 | 18147 rostock,54.1441324,12.1091851
riswicker strasse 85-87 | 47533 kleve,51.7896261,6.1771677
fleher strasse 229 | 40223 düsseldorf,51.19253855,6.769917510890974
lange strasse 100-106 | 27318 hoya,52.8061835,9.132297107409027
erikastrasse 67 | 20251 hamburg,53.5948356,9.9870482
wellenkampstrasse 19 | 32791 lage,51.9965581,8.797956302683568
merscheider strasse 101 | 42699 solingen,51.16345965,7.021050952317516
weinstrasse 19 | 79295 sulzburg,47.841410100000004,7.684146484889245
radenbachweg 2 | 21274 undeloh,53.1981288,9.9809629
schmiedekoppel 7-9 | 23847 kastorf,53.74877,10.5637616
schallbruch 33 | 42781 haan,51.2059791,7.02302186551052
simmerner str. 7 | 55481 kirchberg,49.9450254,7.4147258
bielefelder str. 21 | 49186 bad iburg,52.14586745,8.054409240259044
marshallstrasse 18 | 89231 neu-ulm,48.3789039,10.0141114
ludwig-erhard-strasse 20 | 20459 hamburg,53.5495557,9.9785538
6 rue henry de crousaz | 68110 illzach,47.7716646,7.3897907
alter wandrahm 10 | 20457 hamburg,53.54591155,9.999851649889218
10 rue de france | 69100 villeurbanne,45.7668326,4.8871516
fichtenweg 17 | 99198 erfurt,50.9990862,11.0938333
ravensstrasse 48 | 41334 nettetal,51.3172862,6.179967
am bahnhof 7 | 09212 limbach-oberfrohna,50.85901425,12.7927212
längenfeldgasse 35/501 | 1120 wien,48.1765688,16.3415175
gutenbergstrasse 11 | 49479 ibbenbüren,52.2586681,7.7188825912092724
am weißen tor 15 | 39444 hecklingen,51.881417,11.4021242
bahnhofstrasse 26d | 82256 fürstenfeldbruck,48.1720482,11.2646094
ringstrasse 2 | 65620 waldbrunn,50.510937049999995,8.135746227794932
schmiedstrasse 16 | 72138 kirchentellinsfurt,48.53333295,9.152717267326738
mainzer str. 57-59 | 55411 bingen,49.9692558,7.9053417
carl-zeiss-strasse 3 | 25335 elmshorn,53.7743549,9.654988494547723
robert-bosch-strasse 2 | 27777 ganderkesee,53.0479609,8.5507734
cauerstrasse 19 | 10587 berlin,52.5188738,13.3186954
föhrenstrasse 10 | 77656 offenburg,48.4523822,7.933152
glimpfingerstrasse 64 | 4020 linz,48.2732984,14.302036750221994
junkersstrasse 5 | 93055 regensburg,48.994120699999996,12.150983756122244
hainstrasse 101 | 35216 biedenkopf,50.9167469,8.5186412
forstweg 18 | 90562 heroldsberg,49.5252383,11.1446548
friedrich-koenig-str. 35 | 55129 mainz,49.96558455,8.268151150000001
am bergfeld 7 | 83139 söchtenau,47.9026604,12.2347512
kardinal-faulhaber-strasse 1 | 63801 kleinostheim,50.0076624,9.0584346
siemensring 98 | 47877 willich,51.2653768,6.5121588
"1 la roumade, ambleville | 16300 lignières-ambleville",45.5638774,-0.2162186
32 rue de boston | 16100 cognac,45.6970716,-0.3200375
brauereistrasse 1 | 39326 colbitz,52.3176337,11.6122609
industriestrasse 31 | 53909 zülpich,50.69824865,6.666098360560339
otto-von-guericke-ring 3 | 65205 wiesbaden,50.0580038,8.337029734153237
694 rue d hermes | 60370 berthecourt,49.3513197,2.235774
otto-hahn-strasse 8 | 48301 nottuln,51.92308035,7.374387277125622
karl-weber-ring 27 | 37154 northeim,51.7234886,10.0244251
spaldingstr. 64 | 20097 hamburg,53.548239,10.0137975
3 place notre dame | 21200 beaune,47.0248092,4.8374801
8 rue joseph cugnot | 33700 merignac,44.8541349,-0.6675501
58 bis le bourg | 33570 montagne,45.4632346,2.7708291
1 route de dijon | 21700 nuits saint-georges,47.1465462,4.9555939
dobbenweg 12 | 28203 bremen,53.0788036,8.8247046
humboldtstrasse 38 | 26121 oldenburg,53.1494328,8.213042569714286
köppenweg 3 | 53945 blankenheim,50.424852,6.6927738552988085
zugspitzstrasse 100 | 90471 nürnberg,49.4095375,11.1152084
bleichenbrücke 10 | 20354 hamburg,53.5521844,9.988083
vorm berge 1 | 34346 hann. münden,51.4370775,9.6588948
eppendorfer weg 227 | 20251 hamburg,53.582298949999995,9.972383527666045
attilastrasse 31 | 12529 schönefeld,52.4076735,13.438926
herzberger strasse | 04319 leipzig,51.3532095,12.4915853
radeburger strasse 220 | 01109 dresden,51.1299801,13.734834250000002
massenbergstrasse 11 | 44787 bochum,51.4806598,7.2215857
alte marktoberdorfer strasse 14 | 87616 marktoberdorf,47.75326595,10.64690990346799
bahnhofstrasse 72 | 27404 zeven,53.2782525,9.2759826
westerwaldweg 10 | 53424 remagen,50.60696845,7.206711460670127
grünbach 30 | 3911 rappottenstein,48.5179503,15.0658907
pfälzer ring 5 | 68766 hockenheim,49.3364372,8.526671571811317
51130 vert toulon,48.8421904,3.9039383618613863
159 rue ferdinand buisson | 47240 castelculier,44.1809614,0.6865248
strindbergstrasse 22 | 90482 nürnberg,49.4686576,11.1792069
895 boulevard jean moulin | 54000 nancy,48.6873061,6.2057338
kaiser-wilhelm-strasse 115 | 20355 hamburg,53.5549431,9.9805299
ricklinger stadtweg 24 | 30459 hannover,52.3454052,9.7247871
sophienstrasse 6 | 30159 hannover,52.3724881,9.7437547
domaine du bosc | 34310 montady,43.3213844,3.0943009
dissenchener strasse 55 | 03042 cottbus,51.76001935,14.366199504387911
"2 place du château, | 16200 jarnac",45.6786153,-0.1736118
am bach 18 | 33602 bielefeld,52.0191514,8.5312776
haller strasse 29 | 74564 crailsheim,49.1414106,10.057946307605494
daimlerstrasse 1g | 63303 dreieich,50.005779,8.6922213
in der wanne 1 | 31832 springe,52.21751045,9.552282984926654
burgtreswitzer strasse 11 | 92709 moosbach,49.5921946,12.4013625
breite strasse 32 | 47798 krefeld,51.3287672,6.561646
torfstelle 10 | 21217 seevetal,53.42312685,10.040480599999999
rheinuferstrasse 7-9 | 47829 krefeld,51.3681175,6.6622448
"hanauer landstrasse 129, | 60314 frankfurt/main",50.112026549999996,8.712952117154039
32 rue corbier | 51160 mareuil sur ay,49.0458393,4.0382669
am fohlengarten 10 | 54411 hermeskeil,49.66761915,6.969286992166669
grasweg 2 | 04178 leipzig,51.356161799999995,12.262413879346095
mendelssohngasse 9-13 | 1220 wien,48.2251587,16.4238927
hermannstrasse 16 | 20095 hamburg,53.5519668,9.9962763
am mühlköpfchen 3 | 67714 waldfischbach-burgalben,49.282610399999996,7.652791371381138
oststrasse 40 | 50189 elsdorf,50.94332885,6.577447635897435
3 rue de la mouhee | 85110 chantonnay,46.6793053,-1.0494627
hohenweg 24 | 78132 hornberg,48.216121599999994,8.22852023119854
feldstrasse 6 | 56235 ransbach-baumbach,50.46952135,7.732933772878323
hamburger strasse 14-20 | 25436 tornesch,53.6956551,9.7185994
hietzinger hauptstrasse 66/2 | 1130 wien,48.187458,16.2798127
rosenbergstrasse 6 | 9020 klagenfurt,46.6256689,14.328952299721163
waldeggstrasse 124 | 4060 leonding,48.28069965,14.279574766602641
hopscheider weg 46 | 42555 velbert,51.3665134,7.113273319910593
maschweg 13a | 29227 celle,52.5875889,10.0595981
gewerbegebiet waldstrasse 11 | 04552 borna,51.10712185,12.515622635778538
lindenallee 2 | 09306 rochlitz,51.0486019,12.8029973
bahnhofstrasse 14 | 98724 neuhaus,50.6847422,10.919508253589754
krumme g. 3 | 99189 walschleben,51.0674317,10.936502
leinestrasse 7a | 31008 elze,52.150725,9.7402643
hirthstrasse 10 | 24159 kiel,54.375821099999996,10.133389425141562
zitternberg 129 | 3571 gars,48.58641495,15.662075250000001
schaldinger strasse 63 | 94036 passau,48.5969183,13.3644777
christoph-krautheim-strasse 81 | 95100 selb,50.1883526,12.1277159
dammstrasse 7 | 64747 breuberg,49.83232175,9.039980005518427
charlottenburger allee 25 | 52068 aachen,50.786694,6.136803319330456
hochackerstrasse 14a | 34587 felsberg,51.1242131,9.433365056224659
am südbahnhof 9 | 15907 lübben,51.9296579,13.886819
hauptstrasse 78 | 25492 heist,53.6555342,9.6686527
bahnhofstrasse 11d | 02692 obergurig,51.1363973,14.408146182025316
stoverweg 3 | 24536 neumünster,54.0993727,9.9750576
aguntstrasse 5 | 9900 lienz,46.8263668,12.787701449999988
murnauer strasse 5 | 82362 weilheim,47.8362988,11.1428219
adolf-zschiedrich-strasse 10 | 01900 bretnig-hauswalde,51.1514415,14.060271700000001
untersberg 2 | 53819 neunkirchen-seelscheid,50.86831705,7.327041285698716
bettenhäuser strasse 24 | 34266 niestetal,51.314979750000006,9.544374965560639
zweigstrasse 10a | 82194 gröbenzell,48.1923063,11.3680012
dieselstrasse 1 | 98716 geschwenda,50.722197550000004,10.828591115565523
schleinufer 11 | 39104 magdeburg,52.1211731,11.6328224
borsteler strasse 41 | 31535 neustadt,52.586652400000006,9.383363702694751
hofsteigstrasse 39a | 6890 lustenau,47.4358815,9.6685417
hans-klöpfer-strasse 763 | 8970 schladming,47.398088650000005,13.699477649999995
7 avenue de l europe | 67300 schiltigheim,48.6110127,7.7139891
hauptstrasse 35 | 87757 kirchheim,48.1709593,10.4845154
alte lindenstrasse 8a | 48565 steinfurt,52.1250191,7.393118448722871
weiherleite 4 | 84066 mallersdorf-pfaffenberg,48.7814835,12.2493079
63 rue jeanne d albret | 17000 la rochelle,46.1592388,-1.1661898
6 boulevard joffre | 91490 milly la foret,48.4005967,2.467601
5 rue du chateau rouge | 74100 annemasse,46.1893879,6.235931385613549
277 avenue de l armagnac | 40120 roquefort,44.0310258,-0.3046533
place du four | 32110 nogaro,43.757354,-0.03388378760330617
heinrich-brauns-strasse 9-15 | 45355 essen,51.4730988,6.946723730351994
hoher weg 7a | 31174 schellerten,52.1738473,10.1315602
homburgstr. 8 | 37632 eschershausen,51.925541550000005,9.644358722380472
arkonastrasse 45 - 49 | 13189 berlin,52.5663502,13.4150386
6 rue isaac newton | 25000 besancon,47.212568,5.968701
weinbergstrasse 17a | 55299 nackenheim,49.91404395,8.340782281719653
fürstenrieder strasse 12 | 80687 münchen,48.1414462,11.5029318
marlowring 21 | 22525 hamburg,53.57322835,9.928851632624877
dorfstrasse 30 | 83088 kiefersfelden,47.61318955,12.186853850117608
pönitzer weg 15 | 04425 taucha,51.391868450000004,12.505053232175204
nürnberger strasse 13 | 93336 altmannstein,48.90353475,11.606351096801863
im kleigrund 6 | 26135 oldenburg,53.1077418,8.246473714858421
lychener strasse 16 | 10437 berlin,52.5420945,13.415957
blomberger strasse 143 | 32760 detmold,51.9333702,8.91313264216216
kronprinzenstrasse 158 | 44135 dortmund,51.5085249,7.488830175687703
pfaffenweg 46 | 53227 bonn,50.73879185,7.137621458676341
paul-schmook-strasse 62 | 66115 saarbrücken,49.2397423,6.9690729
nymphenburger strasse 39 | 80335 münchen,48.1483117,11.5513276
wesloer straße 112 | 23568 lübeck,53.88032245,10.777613890708153
eichenmühleweg 16-5 | 88048 friedrichshafen,47.6713896,9.41009965279348
opladener strasse 73 | 42699 solingen,51.13139555,7.008077230911331
harthorststrasse 9 | 45899 gelsenkirchen,51.53061395,7.021464061430834
markt 71 | 2770 gutenstein,47.87614235,15.900672796615229
karl-kuntz-weg 7 | 68163 mannheim,49.4747707,8.530081484891486
pfullendorfer strasse 61a | 99867 gotha,50.9574589,10.7131815
salzstrasse 1 | 6170 zirl,47.2665935,11.2246821
teufelsbreite 26 | 06779 raguhn,51.7095998,12.2753592
isselbacher strasse 9 | 65558 hirschberg,50.376978199999996,7.92173515629649
weserstrasse 6 | 64546 mörfelden-walldorf,50.01030525,8.574386050844149
kantstrasse 120 | 10625 berlin,52.5063428,13.3100409
route d'embreville | 80770 beauchamps,50.0202713,1.5125842
taxlberg 6 | 4641 steinhaus,48.1013806,14.013387311620981
simoniusstrasse 11 | 88239 wangen,47.68079745,9.84581810685893
6 boulevard franck | 13008 marseille,43.2470321,5.3774534
industriegelände zone c 10 | 6166 fulpmes,47.1370835,11.3413185
neershofer strasse 123 | 96450 coburg,50.268503499999994,11.042245967447917
saaläckerstrasse 2 | 63801 kleinostheim,49.9944504,9.0706672
plauberg 1 | 09557 flöha,50.8446881,13.0862403
annaberger strasse 397 | 09125 chemnitz,50.7867775,12.9260378
debyestrasse 110 | 52078 aachen,50.76294505,6.160849261373547
möhnestrasse 4 | 59755 arnsberg,51.4523557,7.9622961
tullner strasse 1 | 3425 langenlebarn,48.332417899999996,16.115281237411246
fahrstrasse 5 | 91054 erlangen,49.5969858,11.008412720800525
hinterhaus 10 | 37176 nörten-hardenberg,51.629383950000005,9.947351775747316
velberstrasse 10 | 30451 hannover,52.3727663,9.7062144
meilsener birkenweg 24 | 21244 buchholz,53.3227812,9.8441455
straßen 43 | 51429 bergisch gladbach,50.98383965,7.189833583652511
springeltwiete 9 | 20095 hamburg,53.54984195,10.003175522724318
fürfelder strasse 20 | 55585 hochstätten,49.76307435,7.832974037254248
hofstrasse 7 a | 18528 bergen,54.46578,13.3878026
industriestrasse 18 | 33829 borgholzhausen,52.0834087,8.27415835
leinenbrink 7 | 33824 werther,52.098779,8.451346851953119
mittelstrasse 22 | 31319 sehnde,52.313662,9.9657384
thiereckstrasse 2 | 80331 münchen,48.1380515,11.5742859
jägerndorfer strasse 1 | 87700 memmingen,47.9776749,10.1602712
wormersdorfer strasse 36 | 53340 meckenheim,50.6146581,7.0048118
kirchenweg 3a | 85604 zorneding,48.08421215,11.824592777219074
paul-roosen-strasse 19 | 22767 hamburg,53.5529771,9.9584607
siemensstrasse 6 | 88048 friedrichshafen,47.67825285,9.479776237965975
bertoldstrasse 48 | 79098 freiburg,47.9956909,7.8439367
3 place hotel de ville | 45410 artenay,48.0816572,1.8779009
breite strasse 5 | 21354 bleckede,53.29150905,10.731931103585419
mittelstrasse 55 | 33602 bielefeld,52.0142348,8.535612414262475
raiffeisenstrasse 10 | 77704 oberkirch,48.53349005,8.065921267592561
hauptstrasse 10 | 95706 schirnding,50.08095765,12.227361719018518
dr.-georg-schäfer-strasse 9a | 97762 hammelburg,50.1237924,9.8793363
thölauer str. 12 | 95615 marktredwitz,50.0077451,12.0815608
marktplatz 12 | 8562 mooskirchen,46.9840476,15.2826042
gartenweg 1 | 18334 dettmannsdorf,53.8044838,12.197321930008975
im bangert 8 | 69242 mühlhausen,49.25750855,8.75252899145789
bahnhofstrasse 27 | 55278 hahnheim,49.86009705,8.241606285619536
ludwig-erhard-strasse 8 | 56073 koblenz,50.35012315,7.395409244284357
suhrenkamp 71-77 | 22335 hamburg,53.6197387,10.0149041
wurlitzer strasse 6 | 32609 hüllhorst,52.2657184,8.6808558
messestrasse 132 | 88046 friedrichshafen,47.6745217,9.5072325
34 rue des tuileries | 69009 lyon,45.7717687,4.8022617
gorskistrasse 9 | 1230 wien,48.1432021,16.3562061
ottobrunner str. 45 | 82008 unterhaching,48.0606427,11.6307163
storchenwiese 8 | 49597 rieste,52.4829443,7.9848656
markt 16 | 24321 lütjenburg,54.292464,10.5890286
rommerskirchener strasse 21 | 50259 pulheim,50.9999942,6.7947778
lichtenauer strasse 9f | 06847 dessau-roßlau,51.8050401,12.1587594
randstrasse 3-5 | 22525 hamburg,53.584983199999996,9.9281953092352
promenadegasse 28 | 1170 wien,48.2303457,16.2932671
gartengasse 8 | 7000 eisenstadt,47.8305869,16.48090714850448
industriestrasse 4 | 77966 kappel-grafenhausen,48.2928893,7.737322844622781
schäftlarnstrasse 10 | 81371 münchen,48.1168948,11.5567795
spreeufer 3 | 10178 berlin,52.5160287,13.4058845
33 grande rue | 21220 morey st denis,47.194363,4.9654944
hintere strasse 39 | 32676 lügde,51.95668525,9.244685119551065
nürnberger strasse 7 | 91052 erlangen,49.593656100000004,11.004347314465651
ersheimer strasse 97 | 69434 hirschhorn,49.44720635,8.90801024450739
wiesenstrasse 28 | 30989 gehrden,52.29984605,9.564207929739759
lehninger strasse 3 | 75242 neuhausen,48.7914061,8.781009844186041
schwerinstrasse 23 | 40477 düsseldorf,51.2397527,6.7787735
brunker stieg 12 | 31061 alfeld,51.99720035,9.793736439944988
rheinstrasse 1b | 47475 kamp-lintfort,51.5006587,6.562019390351136
vor dem dreeser tor 3 | 53359 rheinbach,50.6266334,6.9466246
zadarstrasse 3 | 82256 fürstenfeldbruck,48.1786011,11.2287077
an der autobahn 32 | 28876 oyten,53.056474550000004,9.045892349999999
neuer platz 10 | 9020 klagenfurt,46.623532,14.3084514
kurt-fischer-strasse 23a | 22926 ahrensburg,53.6856841,10.2601555
missongasse 33 | 3500 krems an der donau,48.4092628,15.6123461
bornholzstrasse 5 | 59581 warstein,51.477624750000004,8.33135360529705
bayerhamerstrasse 10 | 5020 salzburg,47.8065806,13.0516029
schwanenmarkt 2 | 47647 kerken,51.4561877,6.375076365962441
südwestring 120 | 64807 dieburg,49.891410449999995,8.8280529
speicherhof 301 | 28217 bremen,53.0891097,8.7815629
märkische strasse 4 | 59494 soest,51.5653403,8.089591570129874
rintheimer str. 10 | 76131 karlsruhe,49.0108106,8.4245245
untere industriestrasse 51-57 | 57250 netphen,50.9084148,8.0683512
industriestrasse 13 | 91522 ansbach,49.293432249999995,10.611698662409466
rosenstrasse 3 | 74592 kirchberg,49.2207935,10.0089681
heidebrinker weg 1 | 18507 grimmen,54.1209042,13.049815653149837
industriestrasse 3 | 94559 niederwinkling,48.894293,12.8011954
